{
  "type" : "FeatureCollection",
  "features" : [{"type":"Feature","id":1,"geometry":{"type":"Point","coordinates":[35.15604622665149,32.069539038662043]},"properties":{"OBJECTID":1,"Y_Point":164071.03599999999,"X_point":164956.00700000001,"Height":593.30399999999997,"Service_Nu":1,"Name":"طلال أحمد عبد الخالق شريف","location":"Farkha","Water_mete":"يعمل","consumptio":0,"connection":4,"Typeofmeters":"Mechanical"}},{"type":"Feature","id":2,"geometry":{"type":"Point","coordinates":[35.15064473914218,32.068301136079398]},"properties":{"OBJECTID":2,"Y_Point":163934.04500000001,"X_point":164445.91099999999,"Height":578.95399999999995,"Service_Nu":2,"Name":"حسين عيد محمد حسان","location":"Farkha","Water_mete":"يعمل","consumptio":0,"connection":4,"Typeofmeters":"Mechanical"}},{"type":"Feature","id":3,"geometry":{"type":"Point","coordinates":[35.150670923079545,32.069293717472988]},"properties":{"OBJECTID":3,"Y_Point":164044.109,"X_point":164448.446,"Height":585.60199999999998,"Service_Nu":3,"Name":"محمود احمد علي رزق الله","location":"Farkha","Water_mete":"يعمل","consumptio":0,"connection":4,"Typeofmeters":"Mechanical"}},{"type":"Feature","id":4,"geometry":{"type":"Point","coordinates":[35.148452335079568,32.068628331384588]},"properties":{"OBJECTID":4,"Y_Point":163970.44699999999,"X_point":164238.91899999999,"Height":584.69000000000005,"Service_Nu":4,"Name":"وئام ابراهيم اسماعيل","location":"Farkha","Water_mete":"يعمل","consumptio":0,"connection":4,"Typeofmeters":"Mechanical"}},{"type":"Feature","id":5,"geometry":{"type":"Point","coordinates":[35.150452014916013,32.069589711635849]},"properties":{"OBJECTID":5,"Y_Point":164076.943,"X_point":164427.79500000001,"Height":591.59000000000003,"Service_Nu":5,"Name":"الحديقة العامة","location":"Farkha","Water_mete":"يعمل","consumptio":0,"connection":4,"Typeofmeters":"Mechanical"}},{"type":"Feature","id":6,"geometry":{"type":"Point","coordinates":[35.155435902282186,32.070585119847614]},"properties":{"OBJECTID":6,"Y_Point":164187.06400000001,"X_point":164898.44,"Height":577.64700000000005,"Service_Nu":6,"Name":"نضال محمد احمد بدح","location":"Farkha","Water_mete":"يعمل","consumptio":0,"connection":4,"Typeofmeters":"Mechanical"}},{"type":"Feature","id":7,"geometry":{"type":"Point","coordinates":[35.15935799112637,32.069786879395238]},"properties":{"OBJECTID":7,"Y_Point":164098.361,"X_point":165268.723,"Height":591.05700000000002,"Service_Nu":7,"Name":"كمال حسين عبدالله زيدية","location":"Farkha","Water_mete":"يعمل","consumptio":0,"connection":4,"Typeofmeters":"Mechanical"}},{"type":"Feature","id":8,"geometry":{"type":"Point","coordinates":[35.158681975169152,32.072218526055636]},"properties":{"OBJECTID":8,"Y_Point":164368.033,"X_point":165205.02600000001,"Height":590.48400000000004,"Service_Nu":8,"Name":"زهران عبد اللطيف قاسم دمدوم","location":"Farkha","Water_mete":"يعمل","consumptio":0,"connection":4,"Typeofmeters":"Mechanical"}},{"type":"Feature","id":9,"geometry":{"type":"Point","coordinates":[35.151875815049017,32.06815735602504]},"properties":{"OBJECTID":9,"Y_Point":163918.03599999999,"X_point":164562.144,"Height":582.447,"Service_Nu":9,"Name":"محمد داوود اسماعيل حسن","location":"Farkha","Water_mete":"يعمل","consumptio":0,"connection":4,"Typeofmeters":"Mechanical"}},{"type":"Feature","id":10,"geometry":{"type":"Point","coordinates":[35.159803938329638,32.069414589367021]},"properties":{"OBJECTID":10,"Y_Point":164057.05799999999,"X_point":165310.81,"Height":587.16399999999999,"Service_Nu":10,"Name":"رامي صابر عوض مهرة","location":"Farkha","Water_mete":"يعمل","consumptio":0,"connection":4,"Typeofmeters":"Mechanical"}},{"type":"Feature","id":11,"geometry":{"type":"Point","coordinates":[35.153896073154598,32.068539467923145]},"properties":{"OBJECTID":11,"Y_Point":163960.30300000001,"X_point":164752.92600000001,"Height":581.37,"Service_Nu":11,"Name":"خالد سليمان رزق الله رزق الله","location":"Farkha","Water_mete":"يعمل","consumptio":0,"connection":4,"Typeofmeters":"Mechanical"}},{"type":"Feature","id":12,"geometry":{"type":"Point","coordinates":[35.159612811252906,32.069351086052329]},"properties":{"OBJECTID":12,"Y_Point":164050.02499999999,"X_point":165292.76000000001,"Height":587.20899999999995,"Service_Nu":12,"Name":"مصطفى حسن مصطفى رزق الله","location":"Farkha","Water_mete":"يعمل","consumptio":0,"connection":4,"Typeofmeters":"Mechanical"}},{"type":"Feature","id":13,"geometry":{"type":"Point","coordinates":[35.160090669423184,32.070899177362627]},"properties":{"OBJECTID":13,"Y_Point":164221.66800000001,"X_point":165337.96299999999,"Height":592.27599999999995,"Service_Nu":13,"Name":"غازي سليمان رزق الله رزق الله","location":"Farkha","Water_mete":"يعمل","consumptio":0,"connection":4,"Typeofmeters":"Mechanical"}},{"type":"Feature","id":14,"geometry":{"type":"Point","coordinates":[35.153895956742964,32.068539332598135]},"properties":{"OBJECTID":14,"Y_Point":163960.288,"X_point":164752.91500000001,"Height":581.38,"Service_Nu":14,"Name":"سليمان رزق الله ( المخازن )","location":"Farkha","Water_mete":"يعمل","consumptio":0,"connection":4,"Typeofmeters":"Mechanical"}},{"type":"Feature","id":15,"geometry":{"type":"Point","coordinates":[35.158772484193861,32.071693340940335]},"properties":{"OBJECTID":15,"Y_Point":164309.79199999999,"X_point":165213.54300000001,"Height":590.97400000000005,"Service_Nu":15,"Name":"مهند عبد المجيد يوسف حجاج","location":"Farkha","Water_mete":"يعمل","consumptio":0,"connection":4,"Typeofmeters":"Mechanical"}},{"type":"Feature","id":16,"geometry":{"type":"Point","coordinates":[35.160779383487537,32.070489062206448]},"properties":{"OBJECTID":16,"Y_Point":164176.16,"X_point":165402.97,"Height":590.745,"Service_Nu":16,"Name":"حرب سليمان شباك ( البركس )","location":"Farkha","Water_mete":"يعمل","consumptio":0,"connection":4,"Typeofmeters":"Mechanical"}},{"type":"Feature","id":17,"geometry":{"type":"Point","coordinates":[35.152207800398514,32.066773982384056]},"properties":{"OBJECTID":17,"Y_Point":163764.61900000001,"X_point":164593.40599999999,"Height":563.68200000000002,"Service_Nu":17,"Name":"اسماعيل عوض عباس عقل","location":"Farkha","Water_mete":"يعمل","consumptio":0,"connection":4,"Typeofmeters":"Mechanical"}},{"type":"Feature","id":18,"geometry":{"type":"Point","coordinates":[35.15468787710104,32.066210893756377]},"properties":{"OBJECTID":18,"Y_Point":163702.052,"X_point":164827.55300000001,"Height":551.30999999999995,"Service_Nu":18,"Name":"عدنان محمد عبد القادر عثمان","location":"Farkha","Water_mete":"يعمل","consumptio":0,"connection":4,"Typeofmeters":"Mechanical"}},{"type":"Feature","id":19,"geometry":{"type":"Point","coordinates":[35.155432308529463,32.069886368547827]},"properties":{"OBJECTID":19,"Y_Point":164109.58100000001,"X_point":164898.06,"Height":585.79700000000003,"Service_Nu":19,"Name":"علام يوسف احمد بدح","location":"Farkha","Water_mete":"يعمل","consumptio":0,"connection":4,"Typeofmeters":"Mechanical"}},{"type":"Feature","id":20,"geometry":{"type":"Point","coordinates":[35.154150674857611,32.068300956461904]},"properties":{"OBJECTID":20,"Y_Point":163933.842,"X_point":164776.95199999999,"Height":579.48400000000004,"Service_Nu":20,"Name":"احمد عبد المجيد يوسف حجاج","location":"Farkha","Water_mete":"يعمل","consumptio":0,"connection":4,"Typeofmeters":"Mechanical"}},{"type":"Feature","id":21,"geometry":{"type":"Point","coordinates":[35.16155845377191,32.070789263187052]},"properties":{"OBJECTID":21,"Y_Point":164209.41399999999,"X_point":165476.546,"Height":590.51700000000005,"Service_Nu":21,"Name":"عبد الله مصباح عبدالله حجاج","location":"Farkha","Water_mete":"يعمل","consumptio":0,"connection":4,"Typeofmeters":"Mechanical"}},{"type":"Feature","id":22,"geometry":{"type":"Point","coordinates":[35.148188803111637,32.069959460338858]},"properties":{"OBJECTID":22,"Y_Point":164118.068,"X_point":164214.12299999999,"Height":577.82299999999998,"Service_Nu":22,"Name":"حسين مصطفى رزق الله","location":"Farkha","Water_mete":"لا يعمل","consumptio":0,"connection":4,"Typeofmeters":"Mechanical"}},{"type":"Feature","id":23,"geometry":{"type":"Point","coordinates":[35.150290618326686,32.069185549838977]},"properties":{"OBJECTID":23,"Y_Point":164032.13500000001,"X_point":164412.53,"Height":582.80200000000002,"Service_Nu":23,"Name":"حمزة محمود احمد قنبز","location":"Farkha","Water_mete":"يعمل","consumptio":0,"connection":4,"Typeofmeters":"Mechanical"}},{"type":"Feature","id":24,"geometry":{"type":"Point","coordinates":[35.152944275036205,32.066439738316674]},"properties":{"OBJECTID":24,"Y_Point":163727.51699999999,"X_point":164662.927,"Height":559.54399999999998,"Service_Nu":24,"Name":"فراس عباس عوض شريف","location":"Farkha","Water_mete":"يعمل","consumptio":0,"connection":4,"Typeofmeters":"Mechanical"}},{"type":"Feature","id":25,"geometry":{"type":"Point","coordinates":[35.14898643284652,32.069585563576275]},"properties":{"OBJECTID":25,"Y_Point":164076.56299999999,"X_point":164289.41200000001,"Height":581.94000000000005,"Service_Nu":25,"Name":"عداد الساحة الرئيسي","location":"Farkha","Water_mete":"يعمل","consumptio":0,"connection":4,"Typeofmeters":"Mechanical"}},{"type":"Feature","id":26,"geometry":{"type":"Point","coordinates":[35.15374034956244,32.068420240103414]},"properties":{"OBJECTID":26,"Y_Point":163947.09,"X_point":164738.215,"Height":580.08100000000002,"Service_Nu":26,"Name":"نظام عبد المجيد يوسف حجاج","location":"Farkha","Water_mete":"يعمل","consumptio":0,"connection":4,"Typeofmeters":"Mechanical"}},{"type":"Feature","id":27,"geometry":{"type":"Point","coordinates":[35.148582891975316,32.069340520507581]},"properties":{"OBJECTID":27,"Y_Point":164049.413,"X_point":164251.29300000001,"Height":583.44500000000005,"Service_Nu":27,"Name":"زينب حسين يوسف","location":"Farkha","Water_mete":"لا يعمل","consumptio":0,"connection":4,"Typeofmeters":"Mechanical"}},{"type":"Feature","id":28,"geometry":{"type":"Point","coordinates":[35.147533820031619,32.069497473683455]},"properties":{"OBJECTID":28,"Y_Point":164066.87599999999,"X_point":164152.24799999999,"Height":595.87699999999995,"Service_Nu":28,"Name":"سليم احمد سليم عقل","location":"Farkha","Water_mete":"يعمل","consumptio":0,"connection":4,"Typeofmeters":"Mechanical"}},{"type":"Feature","id":29,"geometry":{"type":"Point","coordinates":[35.148886067761843,32.06951843691315]},"properties":{"OBJECTID":29,"Y_Point":164069.125,"X_point":164279.93100000001,"Height":582.58100000000002,"Service_Nu":29,"Name":"اسامة مطلق حسين الشريف","location":"Farkha","Water_mete":"يعمل","consumptio":0,"connection":4,"Typeofmeters":"Mechanical"}},{"type":"Feature","id":30,"geometry":{"type":"Point","coordinates":[35.149688312810916,32.068186553720174]},"properties":{"OBJECTID":30,"Y_Point":163921.391,"X_point":164355.595,"Height":567.16800000000001,"Service_Nu":30,"Name":"صدقي عوض عباس شريف","location":"Farkha","Water_mete":"يعمل","consumptio":0,"connection":4,"Typeofmeters":"Mechanical"}},{"type":"Feature","id":31,"geometry":{"type":"Point","coordinates":[35.159213693677671,32.070905677326593]},"properties":{"OBJECTID":31,"Y_Point":164222.429,"X_point":165255.15900000001,"Height":592.88199999999995,"Service_Nu":31,"Name":"سفيان عبد الحافظ قاسم دمدوم","location":"Farkha","Water_mete":"يعمل","consumptio":0,"connection":4,"Typeofmeters":"Mechanical"}},{"type":"Feature","id":32,"geometry":{"type":"Point","coordinates":[35.149392883532713,32.067477954525756]},"properties":{"OBJECTID":32,"Y_Point":163842.83199999999,"X_point":164327.65400000001,"Height":557.48900000000003,"Service_Nu":32,"Name":"موسي محمد محمود الاشقر","location":"Farkha","Water_mete":"يعمل","consumptio":0,"connection":4,"Typeofmeters":"Mechanical"}},{"type":"Feature","id":33,"geometry":{"type":"Point","coordinates":[35.156440693636924,32.069621944551017]},"properties":{"OBJECTID":33,"Y_Point":164080.20999999999,"X_point":164993.258,"Height":594.50099999999998,"Service_Nu":34,"Name":"غسان محمود احمد بدح","location":"Farkha","Water_mete":"يعمل","consumptio":0,"connection":4,"Typeofmeters":"Mechanical"}},{"type":"Feature","id":34,"geometry":{"type":"Point","coordinates":[35.153692762794599,32.069358290492644]},"properties":{"OBJECTID":34,"Y_Point":164051.111,"X_point":164733.77799999999,"Height":579.16700000000003,"Service_Nu":35,"Name":"علان محمد عبد الحافظ رزق الله","location":"Farkha","Water_mete":"يعمل","consumptio":0,"connection":4,"Typeofmeters":"Mechanical"}},{"type":"Feature","id":35,"geometry":{"type":"Point","coordinates":[35.157085955606114,32.068972435689091]},"properties":{"OBJECTID":35,"Y_Point":164008.15599999999,"X_point":165054.14799999999,"Height":594.75800000000004,"Service_Nu":36,"Name":"سامر عواد احمد وهدان","location":"Farkha","Water_mete":"يعمل","consumptio":0,"connection":4,"Typeofmeters":"Mechanical"}},{"type":"Feature","id":36,"geometry":{"type":"Point","coordinates":[35.157085902647147,32.068972444684213]},"properties":{"OBJECTID":36,"Y_Point":164008.15700000001,"X_point":165054.14300000001,"Height":594.73900000000003,"Service_Nu":37,"Name":"عامر عواد احمد وهدان","location":"Farkha","Water_mete":"يعمل","consumptio":0,"connection":4,"Typeofmeters":"Mechanical"}},{"type":"Feature","id":37,"geometry":{"type":"Point","coordinates":[35.151662069357705,32.069084234364439]},"properties":{"OBJECTID":37,"Y_Point":164020.82699999999,"X_point":164542.019,"Height":592.61500000000001,"Service_Nu":38,"Name":"حسين جمال حسين زيدية","location":"Farkha","Water_mete":"يعمل","consumptio":0,"connection":4,"Typeofmeters":"Mechanical"}},{"type":"Feature","id":38,"geometry":{"type":"Point","coordinates":[35.149711713850976,32.068536088971541]},"properties":{"OBJECTID":38,"Y_Point":163960.149,"X_point":164357.82699999999,"Height":572.68899999999996,"Service_Nu":39,"Name":"ماهر محمود يوسف رزق الله","location":"Farkha","Water_mete":"يعمل","consumptio":0,"connection":4,"Typeofmeters":"Mechanical"}},{"type":"Feature","id":39,"geometry":{"type":"Point","coordinates":[35.159635949990012,32.072379230200418]},"properties":{"OBJECTID":39,"Y_Point":164385.80900000001,"X_point":165295.10800000001,"Height":578.101,"Service_Nu":40,"Name":"اسماء محمد محمود رزق الله","location":"Farkha","Water_mete":"يعمل","consumptio":0,"connection":4,"Typeofmeters":"Mechanical"}},{"type":"Feature","id":40,"geometry":{"type":"Point","coordinates":[35.158774624315669,32.070505477414521]},"properties":{"OBJECTID":40,"Y_Point":164178.07199999999,"X_point":165213.67999999999,"Height":592.75999999999999,"Service_Nu":41,"Name":"اوقاف سلفيت مسجد الصحابة","location":"Farkha","Water_mete":"يعمل","consumptio":0,"connection":4,"Typeofmeters":"Mechanical"}},{"type":"Feature","id":41,"geometry":{"type":"Point","coordinates":[35.151788209494207,32.068237954280676]},"properties":{"OBJECTID":41,"Y_Point":163926.978,"X_point":164553.87700000001,"Height":582.40099999999995,"Service_Nu":42,"Name":"اسماعيل داوود اسماعيل عثمان","location":"Farkha","Water_mete":"يعمل","consumptio":0,"connection":4,"Typeofmeters":"Mechanical"}},{"type":"Feature","id":42,"geometry":{"type":"Point","coordinates":[35.156505910943984,32.068082248925215]},"properties":{"OBJECTID":42,"Y_Point":163909.473,"X_point":164999.32800000001,"Height":585.95399999999995,"Service_Nu":43,"Name":"صفية عثمان جبريل جبريل","location":"Farkha","Water_mete":"لا يعمل","consumptio":0,"connection":4,"Typeofmeters":"Mechanical"}},{"type":"Feature","id":43,"geometry":{"type":"Point","coordinates":[35.157640962933591,32.068988844778495]},"properties":{"OBJECTID":43,"Y_Point":164009.94899999999,"X_point":165106.554,"Height":594.63,"Service_Nu":44,"Name":"مراد عبد المجيد سليم","location":"Farkha","Water_mete":"يعمل","consumptio":0,"connection":4,"Typeofmeters":"Mechanical"}},{"type":"Feature","id":44,"geometry":{"type":"Point","coordinates":[35.148886692450141,32.06951868071345]},"properties":{"OBJECTID":44,"Y_Point":164069.152,"X_point":164279.98999999999,"Height":582.73099999999999,"Service_Nu":45,"Name":"فادي اسامة مطلق الشريف","location":"Farkha","Water_mete":"يعمل","consumptio":0,"connection":4,"Typeofmeters":"Mechanical"}},{"type":"Feature","id":45,"geometry":{"type":"Point","coordinates":[35.148886946591546,32.069518734948801]},"properties":{"OBJECTID":45,"Y_Point":164069.158,"X_point":164280.014,"Height":582.76400000000001,"Service_Nu":46,"Name":"شادي اسامة مطلق الشريف","location":"Farkha","Water_mete":"يعمل","consumptio":0,"connection":4,"Typeofmeters":"Mechanical"}},{"type":"Feature","id":46,"geometry":{"type":"Point","coordinates":[35.14896341638822,32.069728227532252]},"properties":{"OBJECTID":46,"Y_Point":164092.38399999999,"X_point":164287.24799999999,"Height":575.88499999999999,"Service_Nu":47,"Name":"وليد احمد حماد رزق الله","location":"Farkha","Water_mete":"يعمل","consumptio":0,"connection":4,"Typeofmeters":"Mechanical"}},{"type":"Feature","id":47,"geometry":{"type":"Point","coordinates":[35.151663302595765,32.069077065559192]},"properties":{"OBJECTID":47,"Y_Point":164020.03200000001,"X_point":164542.13500000001,"Height":590.02599999999995,"Service_Nu":48,"Name":"سامي جمال حسين زيدية","location":"Farkha","Water_mete":"يعمل","consumptio":0,"connection":4,"Typeofmeters":"Mechanical"}},{"type":"Feature","id":48,"geometry":{"type":"Point","coordinates":[35.15832454631596,32.070119925707637]},"properties":{"OBJECTID":48,"Y_Point":164135.34,"X_point":165171.16200000001,"Height":592.29300000000001,"Service_Nu":49,"Name":"رمزي عبد القادر خميس الخطيب","location":"Farkha","Water_mete":"يعمل","consumptio":0,"connection":4,"Typeofmeters":"Mechanical"}},{"type":"Feature","id":49,"geometry":{"type":"Point","coordinates":[35.151965240491407,32.067285852582842]},"properties":{"OBJECTID":49,"Y_Point":163821.39199999999,"X_point":164570.53400000001,"Height":572.58299999999997,"Service_Nu":50,"Name":"رياض خليل حمد دمدوم","location":"Farkha","Water_mete":"يعمل","consumptio":0,"connection":4,"Typeofmeters":"Mechanical"}},{"type":"Feature","id":50,"geometry":{"type":"Point","coordinates":[35.151375025462201,32.069169489625004]},"properties":{"OBJECTID":50,"Y_Point":164030.296,"X_point":164514.921,"Height":589.51900000000001,"Service_Nu":51,"Name":"علي رباح نمر زيدية","location":"Farkha","Water_mete":"يعمل","consumptio":0,"connection":4,"Typeofmeters":"Mechanical"}},{"type":"Feature","id":51,"geometry":{"type":"Point","coordinates":[35.15179904334213,32.068351524440025]},"properties":{"OBJECTID":51,"Y_Point":163939.571,"X_point":164554.90700000001,"Height":589.64499999999998,"Service_Nu":52,"Name":"محمود داوود اسماعيل حسن","location":"Farkha","Water_mete":"يعمل","consumptio":0,"connection":4,"Typeofmeters":"Mechanical"}},{"type":"Feature","id":52,"geometry":{"type":"Point","coordinates":[35.155538356369682,32.067628480724387]},"properties":{"OBJECTID":52,"Y_Point":163859.20300000001,"X_point":164907.94200000001,"Height":580.04399999999998,"Service_Nu":53,"Name":"محمود عبد الفتاح مصطفى حجاج","location":"Farkha","Water_mete":"يعمل","consumptio":0,"connection":4,"Typeofmeters":"Mechanical"}},{"type":"Feature","id":53,"geometry":{"type":"Point","coordinates":[35.161500781969117,32.071316384343966]},"properties":{"OBJECTID":53,"Y_Point":164267.86799999999,"X_point":165471.128,"Height":587.75,"Service_Nu":54,"Name":"نعمة عبد الله حسن حجاج","location":"Farkha","Water_mete":"يعمل","consumptio":0,"connection":4,"Typeofmeters":"Mechanical"}},{"type":"Feature","id":54,"geometry":{"type":"Point","coordinates":[35.160049262506277,32.070219429866974]},"properties":{"OBJECTID":54,"Y_Point":164146.29399999999,"X_point":165334.01699999999,"Height":591.14499999999998,"Service_Nu":55,"Name":"محمد سليمان يوسف شباك","location":"Farkha","Water_mete":"يعمل","consumptio":0,"connection":4,"Typeofmeters":"Mechanical"}},{"type":"Feature","id":55,"geometry":{"type":"Point","coordinates":[35.153100483863575,32.067132672345224]},"properties":{"OBJECTID":55,"Y_Point":163804.34700000001,"X_point":164677.71900000001,"Height":567.65899999999999,"Service_Nu":56,"Name":"عبد الله حسن عبد الهادي حجاج","location":"Farkha","Water_mete":"يعمل","consumptio":0,"connection":4,"Typeofmeters":"Mechanical"}},{"type":"Feature","id":56,"geometry":{"type":"Point","coordinates":[35.159645606697836,32.07232773182448]},"properties":{"OBJECTID":56,"Y_Point":164380.098,"X_point":165296.01699999999,"Height":578.14499999999998,"Service_Nu":57,"Name":"ضياء زهير عبد اللطيف دمدوم","location":"Farkha","Water_mete":"يعمل","consumptio":0,"connection":4,"Typeofmeters":"Mechanical"}},{"type":"Feature","id":57,"geometry":{"type":"Point","coordinates":[35.154771054802232,32.069572096936724]},"properties":{"OBJECTID":57,"Y_Point":164074.76500000001,"X_point":164835.60500000001,"Height":585.75800000000004,"Service_Nu":58,"Name":"ابراهيم عيد عثمان رزق الله","location":"Farkha","Water_mete":"يعمل","consumptio":0,"connection":4,"Typeofmeters":"Mechanical"}},{"type":"Feature","id":58,"geometry":{"type":"Point","coordinates":[35.147865642950407,32.071902292104852]},"properties":{"OBJECTID":58,"Y_Point":164333.52299999999,"X_point":164183.73800000001,"Height":534.33799999999997,"Service_Nu":59,"Name":"جمعية فرخة التعاونية ( المعصرة )","location":"Farkha","Water_mete":"يعمل","consumptio":0,"connection":4,"Typeofmeters":"Mechanical"}},{"type":"Feature","id":59,"geometry":{"type":"Point","coordinates":[35.15837344609259,32.072417894092716]},"properties":{"OBJECTID":59,"Y_Point":164390.155,"X_point":165175.90599999999,"Height":590.53099999999995,"Service_Nu":60,"Name":"مازن سليمان رزق الله","location":"Farkha","Water_mete":"يعمل","consumptio":0,"connection":4,"Typeofmeters":"Mechanical"}},{"type":"Feature","id":60,"geometry":{"type":"Point","coordinates":[35.148516417534459,32.069932182996602]},"properties":{"OBJECTID":60,"Y_Point":164115.02499999999,"X_point":164245.05499999999,"Height":572.75699999999995,"Service_Nu":61,"Name":"منيرة خليل عوض","location":"Farkha","Water_mete":"يعمل","consumptio":0,"connection":4,"Typeofmeters":"Mechanical"}},{"type":"Feature","id":61,"geometry":{"type":"Point","coordinates":[35.154027735934726,32.071473622375237]},"properties":{"OBJECTID":61,"Y_Point":164285.65900000001,"X_point":164765.533,"Height":567.36400000000003,"Service_Nu":62,"Name":"راكز عبد الكريم عبد العزيز رزق الله","location":"Farkha","Water_mete":"يعمل","consumptio":0,"connection":4,"Typeofmeters":"Mechanical"}},{"type":"Feature","id":62,"geometry":{"type":"Point","coordinates":[35.151241445481311,32.068304183476812]},"properties":{"OBJECTID":62,"Y_Point":163934.351,"X_point":164502.25399999999,"Height":579.471,"Service_Nu":63,"Name":"هاني حسن دمدوم دمدوم","location":"Farkha","Water_mete":"يعمل","consumptio":0,"connection":4,"Typeofmeters":"Mechanical"}},{"type":"Feature","id":63,"geometry":{"type":"Point","coordinates":[35.145475656320308,32.068496327995291]},"properties":{"OBJECTID":63,"Y_Point":163955.97899999999,"X_point":163957.84400000001,"Height":564.68200000000002,"Service_Nu":64,"Name":"ساجي محمود رزق الله ( اشتراك 2 )","location":"Farkha","Water_mete":"يعمل","consumptio":0,"connection":4,"Typeofmeters":"Mechanical"}},{"type":"Feature","id":64,"geometry":{"type":"Point","coordinates":[35.158840672748894,32.07137656369612]},"properties":{"OBJECTID":64,"Y_Point":164274.66200000001,"X_point":165219.96400000001,"Height":591.82500000000005,"Service_Nu":65,"Name":"نافز محمد رزق الله رزق الله","location":"Farkha","Water_mete":"يعمل","consumptio":0,"connection":4,"Typeofmeters":"Mechanical"}},{"type":"Feature","id":65,"geometry":{"type":"Point","coordinates":[35.149056929565162,32.067525349400448]},"properties":{"OBJECTID":65,"Y_Point":163848.106,"X_point":164295.935,"Height":558.43299999999999,"Service_Nu":66,"Name":"عادل يوسف محمود احمد","location":"Farkha","Water_mete":"يعمل","consumptio":0,"connection":4,"Typeofmeters":"Mechanical"}},{"type":"Feature","id":66,"geometry":{"type":"Point","coordinates":[35.15493942022195,32.068152542847351]},"properties":{"OBJECTID":66,"Y_Point":163917.345,"X_point":164851.41899999999,"Height":581.42999999999995,"Service_Nu":67,"Name":"احمد عبد الجبار عثمان جبريل","location":"Farkha","Water_mete":"يعمل","consumptio":0,"connection":4,"Typeofmeters":"Mechanical"}},{"type":"Feature","id":67,"geometry":{"type":"Point","coordinates":[35.148158178368718,32.068553170759202]},"properties":{"OBJECTID":67,"Y_Point":163962.12899999999,"X_point":164211.139,"Height":588.72500000000002,"Service_Nu":68,"Name":"طارق عبد الرحمن ابراهيم","location":"Farkha","Water_mete":"يعمل","consumptio":0,"connection":4,"Typeofmeters":"Mechanical"}},{"type":"Feature","id":68,"geometry":{"type":"Point","coordinates":[35.156139113979073,32.070833574327011]},"properties":{"OBJECTID":68,"Y_Point":164214.57999999999,"X_point":164964.85200000001,"Height":580.149,"Service_Nu":69,"Name":"صدام ابراهيم اسماعيل","location":"Farkha","Water_mete":"يعمل","consumptio":0,"connection":4,"Typeofmeters":"Mechanical"}},{"type":"Feature","id":69,"geometry":{"type":"Point","coordinates":[35.153393980861118,32.066366125117078]},"properties":{"OBJECTID":69,"Y_Point":163719.33100000001,"X_point":164705.386,"Height":556.78599999999994,"Service_Nu":70,"Name":"عياد خميس جميل مالوخ","location":"Farkha","Water_mete":"يعمل","consumptio":0,"connection":4,"Typeofmeters":"Mechanical"}},{"type":"Feature","id":70,"geometry":{"type":"Point","coordinates":[35.15886105410204,32.070838903984146]},"properties":{"OBJECTID":70,"Y_Point":164215.041,"X_point":165221.859,"Height":592.89300000000003,"Service_Nu":71,"Name":"عواد حسني اسماعيل شريف","location":"Farkha","Water_mete":"يعمل","consumptio":0,"connection":4,"Typeofmeters":"Mechanical"}},{"type":"Feature","id":71,"geometry":{"type":"Point","coordinates":[35.147590144956233,32.069674031736263]},"properties":{"OBJECTID":71,"Y_Point":164086.451,"X_point":164157.57800000001,"Height":591.16899999999998,"Service_Nu":72,"Name":"زينب اسماعيل عثمان كيالي","location":"Farkha","Water_mete":"يعمل","consumptio":0,"connection":4,"Typeofmeters":"Mechanical"}},{"type":"Feature","id":72,"geometry":{"type":"Point","coordinates":[35.153909119753649,32.071485507948459]},"properties":{"OBJECTID":72,"Y_Point":164286.98300000001,"X_point":164754.334,"Height":566.779,"Service_Nu":73,"Name":"بهجت عبد الكريم خميس خطيب","location":"Farkha","Water_mete":"يعمل","consumptio":0,"connection":4,"Typeofmeters":"Mechanical"}},{"type":"Feature","id":73,"geometry":{"type":"Point","coordinates":[35.160946133609826,32.070799749139347]},"properties":{"OBJECTID":73,"Y_Point":164210.60399999999,"X_point":165418.731,"Height":590.46199999999999,"Service_Nu":74,"Name":"احمد محمد علي شباك","location":"Farkha","Water_mete":"يعمل","consumptio":0,"connection":4,"Typeofmeters":"Mechanical"}},{"type":"Feature","id":74,"geometry":{"type":"Point","coordinates":[35.157086675542516,32.068972823780022]},"properties":{"OBJECTID":74,"Y_Point":164008.19899999999,"X_point":165054.21599999999,"Height":594.74800000000005,"Service_Nu":75,"Name":"عواد احمد عوض وهدان","location":"Farkha","Water_mete":"يعمل","consumptio":0,"connection":4,"Typeofmeters":"Mechanical"}},{"type":"Feature","id":75,"geometry":{"type":"Point","coordinates":[35.151823296536257,32.068867398651534]},"properties":{"OBJECTID":75,"Y_Point":163996.774,"X_point":164557.22899999999,"Height":587.697,"Service_Nu":76,"Name":"سمير عبد الفتاح محمود زيدية","location":"Farkha","Water_mete":"يعمل","consumptio":0,"connection":4,"Typeofmeters":"Mechanical"}},{"type":"Feature","id":76,"geometry":{"type":"Point","coordinates":[35.148428394011134,32.068591327095426]},"properties":{"OBJECTID":76,"Y_Point":163966.345,"X_point":164236.65599999999,"Height":582.47699999999998,"Service_Nu":77,"Name":"فائق عبد الرحمن ابراهيم","location":"Farkha","Water_mete":"يعمل","consumptio":0,"connection":4,"Typeofmeters":"Mechanical"}},{"type":"Feature","id":77,"geometry":{"type":"Point","coordinates":[35.157491106047594,32.069092831213098]},"properties":{"OBJECTID":77,"Y_Point":164021.48699999999,"X_point":165092.41,"Height":594.56100000000004,"Service_Nu":78,"Name":"وجدي محمود عبدالله زيدية","location":"Farkha","Water_mete":"يعمل","consumptio":0,"connection":4,"Typeofmeters":"Mechanical"}},{"type":"Feature","id":78,"geometry":{"type":"Point","coordinates":[35.148840097766893,32.068511533595959]},"properties":{"OBJECTID":78,"Y_Point":163957.47399999999,"X_point":164275.52499999999,"Height":574.98900000000003,"Service_Nu":79,"Name":"عماد عبد المجيد نمر شباك","location":"Farkha","Water_mete":"يعمل","consumptio":0,"connection":4,"Typeofmeters":"Mechanical"}},{"type":"Feature","id":79,"geometry":{"type":"Point","coordinates":[35.151225043949786,32.06695575222269]},"properties":{"OBJECTID":79,"Y_Point":163784.82699999999,"X_point":164500.62100000001,"Height":564.80499999999995,"Service_Nu":80,"Name":"عبد الكريم حمدان احمد دمدوم","location":"Farkha","Water_mete":"يعمل","consumptio":0,"connection":4,"Typeofmeters":"Mechanical"}},{"type":"Feature","id":80,"geometry":{"type":"Point","coordinates":[35.149607938288433,32.068158729341675]},"properties":{"OBJECTID":80,"Y_Point":163918.31,"X_point":164348.00399999999,"Height":566.94200000000001,"Service_Nu":81,"Name":"صادق عوض عباس شريف","location":"Farkha","Water_mete":"يعمل","consumptio":0,"connection":4,"Typeofmeters":"Mechanical"}},{"type":"Feature","id":81,"geometry":{"type":"Point","coordinates":[35.159578886636311,32.070207954224195]},"properties":{"OBJECTID":81,"Y_Point":164145.04300000001,"X_point":165289.603,"Height":591.52099999999996,"Service_Nu":82,"Name":"مصطفى سليمان يوسف شباك","location":"Farkha","Water_mete":"يعمل","consumptio":0,"connection":4,"Typeofmeters":"Mechanical"}},{"type":"Feature","id":82,"geometry":{"type":"Point","coordinates":[35.154514059762946,32.069756535957374]},"properties":{"OBJECTID":82,"Y_Point":164095.23000000001,"X_point":164811.35000000001,"Height":582.93799999999999,"Service_Nu":83,"Name":"فتحي عبد العزيز مصطفى رزق الله","location":"Farkha","Water_mete":"يعمل","consumptio":0,"connection":4,"Typeofmeters":"Mechanical"}},{"type":"Feature","id":83,"geometry":{"type":"Point","coordinates":[35.159213661925627,32.070905641240948]},"properties":{"OBJECTID":83,"Y_Point":164222.42499999999,"X_point":165255.15599999999,"Height":592.87699999999995,"Service_Nu":84,"Name":"فريد عبد الحافظ قاسم دمدوم","location":"Farkha","Water_mete":"يعمل","consumptio":0,"connection":4,"Typeofmeters":"Mechanical"}},{"type":"Feature","id":84,"geometry":{"type":"Point","coordinates":[35.151611337496142,32.068202519037079]},"properties":{"OBJECTID":84,"Y_Point":163923.05799999999,"X_point":164537.174,"Height":580.65599999999995,"Service_Nu":85,"Name":"محمد خميس عبدالخالق الخطيب","location":"Farkha","Water_mete":"يعمل","consumptio":0,"connection":4,"Typeofmeters":"Mechanical"}},{"type":"Feature","id":85,"geometry":{"type":"Point","coordinates":[35.146460626209247,32.069881147850538]},"properties":{"OBJECTID":85,"Y_Point":164109.48199999999,"X_point":164050.94099999999,"Height":589.57000000000005,"Service_Nu":86,"Name":"محمد علي محمود داوود","location":"Farkha","Water_mete":"يعمل","consumptio":0,"connection":4,"Typeofmeters":"Mechanical"}},{"type":"Feature","id":86,"geometry":{"type":"Point","coordinates":[35.15089675182567,32.068415715791723]},"properties":{"OBJECTID":86,"Y_Point":163946.73699999999,"X_point":164469.71400000001,"Height":577.64800000000002,"Service_Nu":87,"Name":"عبد الكريم خميس عبدالخالق","location":"Farkha","Water_mete":"يعمل","consumptio":0,"connection":4,"Typeofmeters":"Mechanical"}},{"type":"Feature","id":87,"geometry":{"type":"Point","coordinates":[35.150151972910244,32.069172847800182]},"properties":{"OBJECTID":87,"Y_Point":164030.734,"X_point":164399.43799999999,"Height":581.20699999999999,"Service_Nu":88,"Name":"فادي عبد اللطيف حسن حجاج","location":"Farkha","Water_mete":"يعمل","consumptio":0,"connection":4,"Typeofmeters":"Mechanical"}},{"type":"Feature","id":88,"geometry":{"type":"Point","coordinates":[35.149195616493181,32.069175875883516]},"properties":{"OBJECTID":88,"Y_Point":164031.122,"X_point":164309.13699999999,"Height":579.67700000000002,"Service_Nu":89,"Name":"محمد صابر عوض مهرة","location":"Farkha","Water_mete":"يعمل","consumptio":0,"connection":4,"Typeofmeters":"Mechanical"}},{"type":"Feature","id":89,"geometry":{"type":"Point","coordinates":[35.154953497496471,32.069937484661175]},"properties":{"OBJECTID":89,"Y_Point":164115.27299999999,"X_point":164852.853,"Height":581.84299999999996,"Service_Nu":90,"Name":"ماهر حسن مصطفى محمود","location":"Farkha","Water_mete":"يعمل","consumptio":0,"connection":4,"Typeofmeters":"Mechanical"}},{"type":"Feature","id":90,"geometry":{"type":"Point","coordinates":[35.147817295266854,32.069357602666265]},"properties":{"OBJECTID":90,"Y_Point":164051.35000000001,"X_point":164179.005,"Height":593.27599999999995,"Service_Nu":91,"Name":"شفيق محمد سلامة عبد الرازق","location":"Farkha","Water_mete":"يعمل","consumptio":0,"connection":4,"Typeofmeters":"Mechanical"}},{"type":"Feature","id":91,"geometry":{"type":"Point","coordinates":[35.159150404079568,32.070203826057963]},"properties":{"OBJECTID":91,"Y_Point":164144.60500000001,"X_point":165249.14499999999,"Height":592.23500000000001,"Service_Nu":92,"Name":"كامل سليمان يوسف شباك","location":"Farkha","Water_mete":"يعمل","consumptio":0,"connection":4,"Typeofmeters":"Mechanical"}},{"type":"Feature","id":92,"geometry":{"type":"Point","coordinates":[35.15261798798938,32.067333875329091]},"properties":{"OBJECTID":92,"Y_Point":163826.68299999999,"X_point":164632.17199999999,"Height":572.01700000000005,"Service_Nu":93,"Name":"عايد حسني اسماعيل الشريف","location":"Farkha","Water_mete":"يعمل","consumptio":0,"connection":4,"Typeofmeters":"Mechanical"}},{"type":"Feature","id":93,"geometry":{"type":"Point","coordinates":[35.155472254073281,32.065490131441514]},"properties":{"OBJECTID":93,"Y_Point":163622.08900000001,"X_point":164901.576,"Height":547.31799999999998,"Service_Nu":94,"Name":"ماهر حمدان عايد حمدان","location":"Farkha","Water_mete":"يعمل","consumptio":0,"connection":4,"Typeofmeters":"Mechanical"}},{"type":"Feature","id":94,"geometry":{"type":"Point","coordinates":[35.155946809414488,32.069385587691912]},"properties":{"OBJECTID":94,"Y_Point":164054.02499999999,"X_point":164946.611,"Height":593.10000000000002,"Service_Nu":95,"Name":"عبد المعطي حسن عيسى حجاج","location":"Farkha","Water_mete":"يعمل","consumptio":0,"connection":4,"Typeofmeters":"Mechanical"}},{"type":"Feature","id":95,"geometry":{"type":"Point","coordinates":[35.15829340775614,32.071949730541355]},"properties":{"OBJECTID":95,"Y_Point":164338.245,"X_point":165168.323,"Height":589.91999999999996,"Service_Nu":96,"Name":"تحسين عبد المعطي حسن حجاج","location":"Farkha","Water_mete":"يعمل","consumptio":0,"connection":4,"Typeofmeters":"Mechanical"}},{"type":"Feature","id":96,"geometry":{"type":"Point","coordinates":[35.154637499402675,32.069547173557488]},"properties":{"OBJECTID":96,"Y_Point":164072.008,"X_point":164822.99299999999,"Height":585.63499999999999,"Service_Nu":97,"Name":"صالح احمد عبد الغني","location":"Farkha","Water_mete":"يعمل","consumptio":0,"connection":4,"Typeofmeters":"Mechanical"}},{"type":"Feature","id":97,"geometry":{"type":"Point","coordinates":[35.147659746349014,32.069857197760385]},"properties":{"OBJECTID":97,"Y_Point":164106.758,"X_point":164164.16200000001,"Height":587.15300000000002,"Service_Nu":98,"Name":"سليمان رزق الله سليمان رزق الله","location":"Farkha","Water_mete":"يعمل","consumptio":0,"connection":4,"Typeofmeters":"Mechanical"}},{"type":"Feature","id":98,"geometry":{"type":"Point","coordinates":[35.155752725867501,32.069381046633126]},"properties":{"OBJECTID":98,"Y_Point":164053.53099999999,"X_point":164928.285,"Height":592.19899999999996,"Service_Nu":99,"Name":"محرم حسن عيسى حجاج","location":"Farkha","Water_mete":"يعمل","consumptio":0,"connection":4,"Typeofmeters":"Mechanical"}},{"type":"Feature","id":99,"geometry":{"type":"Point","coordinates":[35.148539408306014,32.068725022102072]},"properties":{"OBJECTID":99,"Y_Point":163981.16399999999,"X_point":164247.147,"Height":586.46600000000001,"Service_Nu":100,"Name":"يوسف احمد عوض وهدان","location":"Farkha","Water_mete":"يعمل","consumptio":0,"connection":4,"Typeofmeters":"Mechanical"}},{"type":"Feature","id":100,"geometry":{"type":"Point","coordinates":[35.150735216835784,32.069297770685736]},"properties":{"OBJECTID":100,"Y_Point":164044.55499999999,"X_point":164454.51699999999,"Height":587.02800000000002,"Service_Nu":101,"Name":"عثمان داوود عثمان عبد الرازق","location":"Farkha","Water_mete":"يعمل","consumptio":0,"connection":4,"Typeofmeters":"Mechanical"}},{"type":"Feature","id":101,"geometry":{"type":"Point","coordinates":[35.149869199263328,32.069627834978974]},"properties":{"OBJECTID":101,"Y_Point":164081.20199999999,"X_point":164372.76699999999,"Height":582.11099999999999,"Service_Nu":102,"Name":"خالد احمد سليم عقل","location":"Farkha","Water_mete":"يعمل","consumptio":0,"connection":4,"Typeofmeters":"Mechanical"}},{"type":"Feature","id":102,"geometry":{"type":"Point","coordinates":[35.151969787617602,32.068834308646863]},"properties":{"OBJECTID":102,"Y_Point":163993.09700000001,"X_point":164571.05900000001,"Height":586.96500000000003,"Service_Nu":103,"Name":"يوسف حسين ابراهيم جبريل","location":"Farkha","Water_mete":"يعمل","consumptio":0,"connection":4,"Typeofmeters":"Mechanical"}},{"type":"Feature","id":103,"geometry":{"type":"Point","coordinates":[35.151677992682515,32.067658091675838]},"properties":{"OBJECTID":103,"Y_Point":163862.68400000001,"X_point":164543.43400000001,"Height":574.78999999999996,"Service_Nu":104,"Name":"مصطفى احمد مصطفى شريف","location":"Farkha","Water_mete":"يعمل","consumptio":0,"connection":4,"Typeofmeters":"Mechanical"}},{"type":"Feature","id":104,"geometry":{"type":"Point","coordinates":[35.148439061692351,32.069214131776839]},"properties":{"OBJECTID":104,"Y_Point":164035.40599999999,"X_point":164237.704,"Height":584.97299999999996,"Service_Nu":105,"Name":"خالد سليم محمود حجاج","location":"Farkha","Water_mete":"يعمل","consumptio":0,"connection":4,"Typeofmeters":"Mechanical"}},{"type":"Feature","id":105,"geometry":{"type":"Point","coordinates":[35.153437407223578,32.067070883313143]},"properties":{"OBJECTID":105,"Y_Point":163797.478,"X_point":164709.52900000001,"Height":564.41200000000003,"Service_Nu":106,"Name":"زاهي يوسف علي الخطيب","location":"Farkha","Water_mete":"يعمل","consumptio":0,"connection":4,"Typeofmeters":"Mechanical"}},{"type":"Feature","id":106,"geometry":{"type":"Point","coordinates":[35.149622254526101,32.069299526676588]},"properties":{"OBJECTID":106,"Y_Point":164044.81,"X_point":164349.429,"Height":580.99599999999998,"Service_Nu":107,"Name":"رائد جبورة عثمان جبريل","location":"Farkha","Water_mete":"يعمل","consumptio":0,"connection":4,"Typeofmeters":"Mechanical"}},{"type":"Feature","id":107,"geometry":{"type":"Point","coordinates":[35.153438709848537,32.067070892933998]},"properties":{"OBJECTID":107,"Y_Point":163797.47899999999,"X_point":164709.652,"Height":564.53200000000004,"Service_Nu":108,"Name":"زهير يوسف علي الخطيب","location":"Farkha","Water_mete":"يعمل","consumptio":0,"connection":4,"Typeofmeters":"Mechanical"}},{"type":"Feature","id":108,"geometry":{"type":"Point","coordinates":[35.150495628069578,32.068957193986371]},"properties":{"OBJECTID":108,"Y_Point":164006.802,"X_point":164431.87299999999,"Height":581.48500000000001,"Service_Nu":109,"Name":"عبد الجبار حمدان عليان","location":"Farkha","Water_mete":"يعمل","consumptio":0,"connection":4,"Typeofmeters":"Mechanical"}},{"type":"Feature","id":109,"geometry":{"type":"Point","coordinates":[35.149447563374792,32.06909264631183]},"properties":{"OBJECTID":109,"Y_Point":164021.87899999999,"X_point":164332.921,"Height":578.83299999999997,"Service_Nu":110,"Name":"عبد الكريم عبد العزيز رزق الله","location":"Farkha","Water_mete":"يعمل","consumptio":0,"connection":4,"Typeofmeters":"Mechanical"}},{"type":"Feature","id":110,"geometry":{"type":"Point","coordinates":[35.159384614797546,32.069863580425626]},"properties":{"OBJECTID":110,"Y_Point":164106.86499999999,"X_point":165271.24100000001,"Height":591.06500000000005,"Service_Nu":111,"Name":"عبد المنعم سليمان يوسف شباك","location":"Farkha","Water_mete":"يعمل","consumptio":0,"connection":4,"Typeofmeters":"Mechanical"}},{"type":"Feature","id":111,"geometry":{"type":"Point","coordinates":[35.153507779686329,32.068485369805302]},"properties":{"OBJECTID":111,"Y_Point":163954.32399999999,"X_point":164716.25899999999,"Height":582.11099999999999,"Service_Nu":112,"Name":"محمد عبد الفتاح محمد الاشقر","location":"Farkha","Water_mete":"يعمل","consumptio":0,"connection":4,"Typeofmeters":"Mechanical"}},{"type":"Feature","id":112,"geometry":{"type":"Point","coordinates":[35.153079010438056,32.068594280972142]},"properties":{"OBJECTID":112,"Y_Point":163966.42300000001,"X_point":164675.78,"Height":583.08100000000002,"Service_Nu":113,"Name":"زاهر عبد الفتاح محمد الاشقر","location":"Farkha","Water_mete":"يعمل","consumptio":0,"connection":4,"Typeofmeters":"Mechanical"}},{"type":"Feature","id":113,"geometry":{"type":"Point","coordinates":[35.158305107684392,32.072298997530332]},"properties":{"OBJECTID":113,"Y_Point":164376.97399999999,"X_point":165169.44699999999,"Height":590.62099999999998,"Service_Nu":114,"Name":"حسيب عبد المعطي حسن حجاج","location":"Farkha","Water_mete":"يعمل","consumptio":0,"connection":4,"Typeofmeters":"Mechanical"}},{"type":"Feature","id":114,"geometry":{"type":"Point","coordinates":[35.158182832380419,32.072336920805114]},"properties":{"OBJECTID":114,"Y_Point":164381.185,"X_point":165157.90400000001,"Height":590.16600000000005,"Service_Nu":115,"Name":"حسان عبد المعطي حسن حجاج","location":"Farkha","Water_mete":"يعمل","consumptio":0,"connection":4,"Typeofmeters":"Mechanical"}},{"type":"Feature","id":115,"geometry":{"type":"Point","coordinates":[35.149381799197059,32.069086409337125]},"properties":{"OBJECTID":115,"Y_Point":164021.19099999999,"X_point":164326.71100000001,"Height":578.81399999999996,"Service_Nu":116,"Name":"زاهي حسن مصطفى رزق الله","location":"Farkha","Water_mete":"يعمل","consumptio":0,"connection":4,"Typeofmeters":"Mechanical"}},{"type":"Feature","id":116,"geometry":{"type":"Point","coordinates":[35.159778681388808,32.069466829844401]},"properties":{"OBJECTID":116,"Y_Point":164062.85200000001,"X_point":165308.42800000001,"Height":587.11900000000003,"Service_Nu":117,"Name":"زيدان يوسف علي الخطيب","location":"Farkha","Water_mete":"يعمل","consumptio":0,"connection":4,"Typeofmeters":"Mechanical"}},{"type":"Feature","id":117,"geometry":{"type":"Point","coordinates":[35.152539010516627,32.067830266993461]},"properties":{"OBJECTID":117,"Y_Point":163881.731,"X_point":164624.745,"Height":585.51800000000003,"Service_Nu":118,"Name":"باسم عبد العزيز مصطفى رزق الله","location":"Farkha","Water_mete":"يعمل","consumptio":0,"connection":4,"Typeofmeters":"Mechanical"}},{"type":"Feature","id":118,"geometry":{"type":"Point","coordinates":[35.160901763791585,32.070142194265323]},"properties":{"OBJECTID":118,"Y_Point":164137.69099999999,"X_point":165414.50700000001,"Height":590.22299999999996,"Service_Nu":119,"Name":"حسني محمود محمد عودة","location":"Farkha","Water_mete":"يعمل","consumptio":0,"connection":4,"Typeofmeters":"Mechanical"}},{"type":"Feature","id":119,"geometry":{"type":"Point","coordinates":[35.14776469977928,32.069783798616818]},"properties":{"OBJECTID":119,"Y_Point":164098.61300000001,"X_point":164174.06700000001,"Height":588.78099999999995,"Service_Nu":120,"Name":"غسان يوسف محمود احمد","location":"Farkha","Water_mete":"يعمل","consumptio":0,"connection":4,"Typeofmeters":"Mechanical"}},{"type":"Feature","id":120,"geometry":{"type":"Point","coordinates":[35.154005606323956,32.067945829192624]},"properties":{"OBJECTID":120,"Y_Point":163894.47,"X_point":164763.23300000001,"Height":576.51499999999999,"Service_Nu":121,"Name":"عبد الرحمن محمد احمد قنبز","location":"Farkha","Water_mete":"يعمل","consumptio":0,"connection":4,"Typeofmeters":"Mechanical"}},{"type":"Feature","id":121,"geometry":{"type":"Point","coordinates":[35.149219116329277,32.069703717164913]},"properties":{"OBJECTID":121,"Y_Point":164089.652,"X_point":164311.39000000001,"Height":580.65700000000004,"Service_Nu":122,"Name":"محمود يوسف سليمان رزق الله","location":"Farkha","Water_mete":"يعمل","consumptio":0,"connection":4,"Typeofmeters":"Mechanical"}},{"type":"Feature","id":122,"geometry":{"type":"Point","coordinates":[35.149760578527669,32.068724447117134]},"properties":{"OBJECTID":122,"Y_Point":163981.033,"X_point":164362.45300000001,"Height":574.74300000000005,"Service_Nu":123,"Name":"ثابت محمود يوسف رزق الله","location":"Farkha","Water_mete":"يعمل","consumptio":0,"connection":4,"Typeofmeters":"Mechanical"}},{"type":"Feature","id":123,"geometry":{"type":"Point","coordinates":[35.149883147053309,32.068720755798573]},"properties":{"OBJECTID":123,"Y_Point":163980.617,"X_point":164374.02600000001,"Height":575.37400000000002,"Service_Nu":124,"Name":"ساجي محمود يوسف رزق الله","location":"Farkha","Water_mete":"يعمل","consumptio":0,"connection":4,"Typeofmeters":"Mechanical"}},{"type":"Feature","id":124,"geometry":{"type":"Point","coordinates":[35.14744971552738,32.069065283274895]},"properties":{"OBJECTID":124,"Y_Point":164018.95600000001,"X_point":164144.27799999999,"Height":600.32500000000005,"Service_Nu":125,"Name":"عبد الله مرعي راشد بني صخر","location":"Farkha","Water_mete":"يعمل","consumptio":0,"connection":4,"Typeofmeters":"Mechanical"}},{"type":"Feature","id":125,"geometry":{"type":"Point","coordinates":[35.156026641494506,32.069613077654665]},"properties":{"OBJECTID":125,"Y_Point":164079.247,"X_point":164954.16200000001,"Height":592.58100000000002,"Service_Nu":126,"Name":"احمد عبدالخالق عيسى الشريف","location":"Farkha","Water_mete":"يعمل","consumptio":0,"connection":4,"Typeofmeters":"Mechanical"}},{"type":"Feature","id":126,"geometry":{"type":"Point","coordinates":[35.14949420005226,32.069846195059888]},"properties":{"OBJECTID":126,"Y_Point":164105.43599999999,"X_point":164337.37299999999,"Height":576.95899999999995,"Service_Nu":127,"Name":"تيسير محمد سليمان رزق الله","location":"Farkha","Water_mete":"يعمل","consumptio":0,"connection":4,"Typeofmeters":"Mechanical"}},{"type":"Feature","id":127,"geometry":{"type":"Point","coordinates":[35.148544122705033,32.069013811232104]},"properties":{"OBJECTID":127,"Y_Point":164013.18700000001,"X_point":164247.611,"Height":583.51999999999998,"Service_Nu":128,"Name":"محمد احمد محمود العبهري","location":"Farkha","Water_mete":"يعمل","consumptio":0,"connection":4,"Typeofmeters":"Mechanical"}},{"type":"Feature","id":128,"geometry":{"type":"Point","coordinates":[35.159702825148187,32.070237584888659]},"properties":{"OBJECTID":128,"Y_Point":164148.323,"X_point":165301.307,"Height":591.62599999999998,"Service_Nu":129,"Name":"حرب سليمان يوسف شباك","location":"Farkha","Water_mete":"يعمل","consumptio":0,"connection":4,"Typeofmeters":"Mechanical"}},{"type":"Feature","id":129,"geometry":{"type":"Point","coordinates":[35.153036062033287,32.067330147917524]},"properties":{"OBJECTID":129,"Y_Point":163826.24799999999,"X_point":164671.64799999999,"Height":570.94500000000005,"Service_Nu":130,"Name":"احمد حسن مصطفى رزق الله","location":"Farkha","Water_mete":"يعمل","consumptio":0,"connection":4,"Typeofmeters":"Mechanical"}},{"type":"Feature","id":130,"geometry":{"type":"Point","coordinates":[35.148452620734261,32.068628755378946]},"properties":{"OBJECTID":130,"Y_Point":163970.49400000001,"X_point":164238.946,"Height":585.75400000000002,"Service_Nu":131,"Name":"امير ابراهيم اسماعيل رزق","location":"Farkha","Water_mete":"يعمل","consumptio":0,"connection":4,"Typeofmeters":"Mechanical"}},{"type":"Feature","id":131,"geometry":{"type":"Point","coordinates":[35.159861768614761,32.070841286230042]},"properties":{"OBJECTID":131,"Y_Point":164215.25899999999,"X_point":165316.34700000001,"Height":592.39300000000003,"Service_Nu":132,"Name":"عبد الفتاح رزق الله سليمان رزق","location":"Farkha","Water_mete":"يعمل","consumptio":0,"connection":4,"Typeofmeters":"Mechanical"}},{"type":"Feature","id":132,"geometry":{"type":"Point","coordinates":[35.148115028418218,32.068056224322483]},"properties":{"OBJECTID":132,"Y_Point":163907.02600000001,"X_point":164207.03200000001,"Height":575.48099999999999,"Service_Nu":133,"Name":"امين صالح علي عيسى الخطيب","location":"Farkha","Water_mete":"يعمل","consumptio":0,"connection":4,"Typeofmeters":"Mechanical"}},{"type":"Feature","id":133,"geometry":{"type":"Point","coordinates":[35.155214224075195,32.069832225380722]},"properties":{"OBJECTID":133,"Y_Point":164103.58799999999,"X_point":164877.465,"Height":585.28700000000003,"Service_Nu":134,"Name":"ثمين يوسف احمد بدح","location":"Farkha","Water_mete":"يعمل","consumptio":0,"connection":4,"Typeofmeters":"Mechanical"}},{"type":"Feature","id":134,"geometry":{"type":"Point","coordinates":[35.151044853705521,32.068364564365709]},"properties":{"OBJECTID":134,"Y_Point":163941.057,"X_point":164483.69500000001,"Height":578.02200000000005,"Service_Nu":135,"Name":"علي يوسف علي الخطيب","location":"Farkha","Water_mete":"يعمل","consumptio":0,"connection":4,"Typeofmeters":"Mechanical"}},{"type":"Feature","id":135,"geometry":{"type":"Point","coordinates":[35.153895946220821,32.068539224376018]},"properties":{"OBJECTID":135,"Y_Point":163960.27600000001,"X_point":164752.91399999999,"Height":581.37699999999995,"Service_Nu":136,"Name":"احمد سليمان رزق الله رزق الله","location":"Farkha","Water_mete":"يعمل","consumptio":0,"connection":4,"Typeofmeters":"Mechanical"}},{"type":"Feature","id":136,"geometry":{"type":"Point","coordinates":[35.151852525945053,32.068109377653712]},"properties":{"OBJECTID":136,"Y_Point":163912.717,"X_point":164559.94200000001,"Height":581.93200000000002,"Service_Nu":137,"Name":"عيسى يوسف خميس عبدالخالق خطيب","location":"Farkha","Water_mete":"يعمل","consumptio":0,"connection":4,"Typeofmeters":"Mechanical"}},{"type":"Feature","id":137,"geometry":{"type":"Point","coordinates":[35.158437564851013,32.070621713807782]},"properties":{"OBJECTID":137,"Y_Point":164190.97700000001,"X_point":165181.861,"Height":591.83000000000004,"Service_Nu":138,"Name":"عيسى خميس الخطيب ( المخازن )","location":"Farkha","Water_mete":"يعمل","consumptio":0,"connection":4,"Typeofmeters":"Mechanical"}},{"type":"Feature","id":138,"geometry":{"type":"Point","coordinates":[35.151665565115387,32.069082991532539]},"properties":{"OBJECTID":138,"Y_Point":164020.68900000001,"X_point":164542.34899999999,"Height":589.98500000000001,"Service_Nu":139,"Name":"جمال حسين عبدالله زيدية","location":"Farkha","Water_mete":"لا يعمل","consumptio":0,"connection":4,"Typeofmeters":"Mechanical"}},{"type":"Feature","id":139,"geometry":{"type":"Point","coordinates":[35.158967961300711,32.068709440779173]},"properties":{"OBJECTID":139,"Y_Point":163978.90400000001,"X_point":165231.837,"Height":587.71000000000004,"Service_Nu":140,"Name":"محمد حمدالله خالد شريف","location":"Farkha","Water_mete":"يعمل","consumptio":0,"connection":4,"Typeofmeters":"Mechanical"}},{"type":"Feature","id":140,"geometry":{"type":"Point","coordinates":[35.150880719298328,32.068683464615589]},"properties":{"OBJECTID":140,"Y_Point":163976.42800000001,"X_point":164468.217,"Height":580.74300000000005,"Service_Nu":141,"Name":"زكريا عبد اللطيف قاسم دمدوم","location":"Farkha","Water_mete":"يعمل","consumptio":0,"connection":4,"Typeofmeters":"Mechanical"}},{"type":"Feature","id":141,"geometry":{"type":"Point","coordinates":[35.154484506883271,32.068935838953003]},"properties":{"OBJECTID":141,"Y_Point":164004.226,"X_point":164808.511,"Height":585.16800000000001,"Service_Nu":142,"Name":"لبيب عطالله محمود شريف","location":"Farkha","Water_mete":"يعمل","consumptio":0,"connection":4,"Typeofmeters":"Mechanical"}},{"type":"Feature","id":142,"geometry":{"type":"Point","coordinates":[35.154115452112663,32.067945654028335]},"properties":{"OBJECTID":142,"Y_Point":163894.44500000001,"X_point":164773.60500000001,"Height":576.69000000000005,"Service_Nu":143,"Name":"يوسف محمد احمد قنبز","location":"Farkha","Water_mete":"يعمل","consumptio":0,"connection":4,"Typeofmeters":"Mechanical"}},{"type":"Feature","id":143,"geometry":{"type":"Point","coordinates":[35.155430084290835,32.069886638096676]},"properties":{"OBJECTID":143,"Y_Point":164109.611,"X_point":164897.85000000001,"Height":585.77499999999998,"Service_Nu":144,"Name":"أيمن يوسف أحمد بدح","location":"Farkha","Water_mete":"يعمل","consumptio":0,"connection":4,"Typeofmeters":"Mechanical"}},{"type":"Feature","id":144,"geometry":{"type":"Point","coordinates":[35.146110495660139,32.069686598893547]},"properties":{"OBJECTID":144,"Y_Point":164087.929,"X_point":164017.86799999999,"Height":589.73800000000006,"Service_Nu":145,"Name":"كاملة حسن عمر زيدان","location":"Farkha","Water_mete":"يعمل","consumptio":0,"connection":4,"Typeofmeters":"Mechanical"}},{"type":"Feature","id":145,"geometry":{"type":"Point","coordinates":[35.153692699358928,32.069358119119428]},"properties":{"OBJECTID":145,"Y_Point":164051.092,"X_point":164733.772,"Height":579.15499999999997,"Service_Nu":146,"Name":"محمد عبدالحافظ محمد رزق الله","location":"Farkha","Water_mete":"يعمل","consumptio":0,"connection":4,"Typeofmeters":"Mechanical"}},{"type":"Feature","id":146,"geometry":{"type":"Point","coordinates":[35.153692540440275,32.069358209227261]},"properties":{"OBJECTID":146,"Y_Point":164051.10200000001,"X_point":164733.75700000001,"Height":579.14300000000003,"Service_Nu":147,"Name":"علاء محمد عبدالحافظ رزق الله","location":"Farkha","Water_mete":"يعمل","consumptio":0,"connection":4,"Typeofmeters":"Mechanical"}},{"type":"Feature","id":147,"geometry":{"type":"Point","coordinates":[35.156425064494435,32.0691625915169]},"properties":{"OBJECTID":147,"Y_Point":164029.274,"X_point":164991.75599999999,"Height":594.96900000000005,"Service_Nu":148,"Name":"محمد احمد محمد بدح","location":"Farkha","Water_mete":"يعمل","consumptio":0,"connection":4,"Typeofmeters":"Mechanical"}},{"type":"Feature","id":148,"geometry":{"type":"Point","coordinates":[35.15986487721149,32.069694834050878]},"properties":{"OBJECTID":148,"Y_Point":164088.13099999999,"X_point":165316.579,"Height":589.33399999999995,"Service_Nu":149,"Name":"عبد الرؤوف سليمان يوسف شباك","location":"Farkha","Water_mete":"يعمل","consumptio":0,"connection":4,"Typeofmeters":"Mechanical"}},{"type":"Feature","id":149,"geometry":{"type":"Point","coordinates":[35.158396624905798,32.070106456160246]},"properties":{"OBJECTID":149,"Y_Point":164133.84299999999,"X_point":165177.967,"Height":592.27700000000004,"Service_Nu":150,"Name":"عامر يوسف علي الخطيب","location":"Farkha","Water_mete":"يعمل","consumptio":0,"connection":4,"Typeofmeters":"Mechanical"}},{"type":"Feature","id":150,"geometry":{"type":"Point","coordinates":[35.15358169519866,32.068779637670374]},"properties":{"OBJECTID":150,"Y_Point":163986.951,"X_point":164723.25599999999,"Height":582.18499999999995,"Service_Nu":151,"Name":"طه عبدالحافظ محمد رزق الله","location":"Farkha","Water_mete":"يعمل","consumptio":0,"connection":4,"Typeofmeters":"Mechanical"}},{"type":"Feature","id":151,"geometry":{"type":"Point","coordinates":[35.151629555818879,32.0667176693687]},"properties":{"OBJECTID":151,"Y_Point":163758.405,"X_point":164538.802,"Height":563.18499999999995,"Service_Nu":152,"Name":"محمود احمد سليم عقل","location":"Farkha","Water_mete":"يعمل","consumptio":0,"connection":4,"Typeofmeters":"Mechanical"}},{"type":"Feature","id":152,"geometry":{"type":"Point","coordinates":[35.148393475086436,32.068990757485871]},"properties":{"OBJECTID":152,"Y_Point":164010.639,"X_point":164233.38500000001,"Height":584.88499999999999,"Service_Nu":153,"Name":"اسماعيل ابراهيم اسماعيل رزق","location":"Farkha","Water_mete":"يعمل","consumptio":0,"connection":4,"Typeofmeters":"Mechanical"}},{"type":"Feature","id":153,"geometry":{"type":"Point","coordinates":[35.148393665806807,32.068990631328241]},"properties":{"OBJECTID":153,"Y_Point":164010.625,"X_point":164233.40299999999,"Height":584.90899999999999,"Service_Nu":154,"Name":"عبد الرحيم ابراهيم اسماعيل رزق","location":"Farkha","Water_mete":"يعمل","consumptio":0,"connection":4,"Typeofmeters":"Mechanical"}},{"type":"Feature","id":154,"geometry":{"type":"Point","coordinates":[35.15909163321156,32.070262734804231]},"properties":{"OBJECTID":154,"Y_Point":164151.14000000001,"X_point":165243.59899999999,"Height":592.50300000000004,"Service_Nu":155,"Name":"نعيم سليمان يوسف شباك","location":"Farkha","Water_mete":"يعمل","consumptio":0,"connection":4,"Typeofmeters":"Mechanical"}},{"type":"Feature","id":155,"geometry":{"type":"Point","coordinates":[35.161195552373314,32.070737949275632]},"properties":{"OBJECTID":155,"Y_Point":164203.73999999999,"X_point":165442.27799999999,"Height":590.45500000000004,"Service_Nu":156,"Name":"عيد محمود محمد عودة","location":"Farkha","Water_mete":"يعمل","consumptio":0,"connection":4,"Typeofmeters":"Mechanical"}},{"type":"Feature","id":156,"geometry":{"type":"Point","coordinates":[35.150945162407503,32.068796690973763]},"properties":{"OBJECTID":156,"Y_Point":163988.98000000001,"X_point":164474.30900000001,"Height":583.08000000000004,"Service_Nu":157,"Name":"ماهر حمدان احمد دمدوم","location":"Farkha","Water_mete":"يعمل","consumptio":0,"connection":4,"Typeofmeters":"Mechanical"}},{"type":"Feature","id":157,"geometry":{"type":"Point","coordinates":[35.156440364765508,32.069622864253255]},"properties":{"OBJECTID":157,"Y_Point":164080.31200000001,"X_point":164993.22700000001,"Height":594.46500000000003,"Service_Nu":158,"Name":"محمود أحمد محمد بدح","location":"Farkha","Water_mete":"يعمل","consumptio":0,"connection":4,"Typeofmeters":"Mechanical"}},{"type":"Feature","id":158,"geometry":{"type":"Point","coordinates":[35.155577561397841,32.068784475127153]},"properties":{"OBJECTID":158,"Y_Point":163987.38699999999,"X_point":164911.71100000001,"Height":590.95299999999997,"Service_Nu":159,"Name":"احمد مصطفى عبد الشريف","location":"Farkha","Water_mete":"يعمل","consumptio":0,"connection":4,"Typeofmeters":"Mechanical"}},{"type":"Feature","id":159,"geometry":{"type":"Point","coordinates":[35.153140070534327,32.068751801575573]},"properties":{"OBJECTID":159,"Y_Point":163983.88699999999,"X_point":164681.55499999999,"Height":581.45399999999995,"Service_Nu":160,"Name":"داوود عبد الحافظ رزق الله","location":"Farkha","Water_mete":"يعمل","consumptio":0,"connection":4,"Typeofmeters":"Mechanical"}},{"type":"Feature","id":160,"geometry":{"type":"Point","coordinates":[35.153139625690763,32.068751855477323]},"properties":{"OBJECTID":160,"Y_Point":163983.89300000001,"X_point":164681.51300000001,"Height":581.524,"Service_Nu":161,"Name":"داوود عبد الحافظ رزق الله ( اشتراك 2 )","location":"Farkha","Water_mete":"يعمل","consumptio":0,"connection":4,"Typeofmeters":"Mechanical"}},{"type":"Feature","id":161,"geometry":{"type":"Point","coordinates":[35.15314608807136,32.067361528033928]},"properties":{"OBJECTID":161,"Y_Point":163829.72200000001,"X_point":164682.03899999999,"Height":571.58799999999997,"Service_Nu":162,"Name":"فلاح عبد الله حسن حجاج","location":"Farkha","Water_mete":"يعمل","consumptio":0,"connection":4,"Typeofmeters":"Mechanical"}},{"type":"Feature","id":162,"geometry":{"type":"Point","coordinates":[35.147228986583897,32.069271134995958]},"properties":{"OBJECTID":162,"Y_Point":164041.79500000001,"X_point":164123.45000000001,"Height":600.25,"Service_Nu":163,"Name":"عبد الجابر عثمان جبريل عبد الله","location":"Farkha","Water_mete":"يعمل","consumptio":0,"connection":4,"Typeofmeters":"Mechanical"}},{"type":"Feature","id":163,"geometry":{"type":"Point","coordinates":[35.158136720954353,32.068256092190467]},"properties":{"OBJECTID":163,"Y_Point":163928.67199999999,"X_point":165153.32399999999,"Height":587.26199999999994,"Service_Nu":164,"Name":"حلمي احمد حسن دمدوم","location":"Farkha","Water_mete":"يعمل","consumptio":0,"connection":4,"Typeofmeters":"Mechanical"}},{"type":"Feature","id":164,"geometry":{"type":"Point","coordinates":[35.156867989821059,32.068828538210539]},"properties":{"OBJECTID":164,"Y_Point":163992.20999999999,"X_point":165033.55900000001,"Height":594.70699999999999,"Service_Nu":165,"Name":"عيد محمد محمود الاشقر","location":"Farkha","Water_mete":"يعمل","consumptio":0,"connection":4,"Typeofmeters":"Mechanical"}},{"type":"Feature","id":165,"geometry":{"type":"Point","coordinates":[35.147914338708688,32.069766658911234]},"properties":{"OBJECTID":165,"Y_Point":164096.704,"X_point":164188.19500000001,"Height":587.71199999999999,"Service_Nu":166,"Name":"مؤيد صالح سليم دمدوم","location":"Farkha","Water_mete":"يعمل","consumptio":0,"connection":4,"Typeofmeters":"Mechanical"}},{"type":"Feature","id":166,"geometry":{"type":"Point","coordinates":[35.154149965068989,32.068301298825496]},"properties":{"OBJECTID":166,"Y_Point":163933.88,"X_point":164776.88500000001,"Height":579.48500000000001,"Service_Nu":167,"Name":"عبد المجيد يوسف عيسى حجاج","location":"Farkha","Water_mete":"يعمل","consumptio":0,"connection":4,"Typeofmeters":"Mechanical"}},{"type":"Feature","id":167,"geometry":{"type":"Point","coordinates":[35.158863280914282,32.070194200730924]},"properties":{"OBJECTID":167,"Y_Point":164143.55100000001,"X_point":165222.03400000001,"Height":592.74599999999998,"Service_Nu":168,"Name":"شعبان محمد احمد العبهري","location":"Farkha","Water_mete":"يعمل","consumptio":0,"connection":4,"Typeofmeters":"Mechanical"}},{"type":"Feature","id":168,"geometry":{"type":"Point","coordinates":[35.157720932287816,32.069348845781057]},"properties":{"OBJECTID":168,"Y_Point":164049.86499999999,"X_point":165114.125,"Height":593.85299999999995,"Service_Nu":169,"Name":"عيسى محمد الاشقر 2","location":"Farkha","Water_mete":"يعمل","consumptio":0,"connection":4,"Typeofmeters":"Mechanical"}},{"type":"Feature","id":169,"geometry":{"type":"Point","coordinates":[35.156550139732531,32.069217440388066]},"properties":{"OBJECTID":169,"Y_Point":164035.35000000001,"X_point":165003.56899999999,"Height":595.35799999999995,"Service_Nu":170,"Name":"عدي رباح نمر زيدية","location":"Farkha","Water_mete":"يعمل","consumptio":0,"connection":4,"Typeofmeters":"Mechanical"}},{"type":"Feature","id":170,"geometry":{"type":"Point","coordinates":[35.148043852484172,32.069054140906474]},"properties":{"OBJECTID":170,"Y_Point":164017.68700000001,"X_point":164200.37700000001,"Height":592.37599999999998,"Service_Nu":171,"Name":"جمال عبد الرحيم يوسف عبد","location":"Farkha","Water_mete":"يعمل","consumptio":0,"connection":4,"Typeofmeters":"Mechanical"}},{"type":"Feature","id":171,"geometry":{"type":"Point","coordinates":[35.150733729897951,32.068844069125255]},"properties":{"OBJECTID":171,"Y_Point":163994.245,"X_point":164454.348,"Height":582.74300000000005,"Service_Nu":172,"Name":"محمد عوض ذيب مهرة","location":"Farkha","Water_mete":"يعمل","consumptio":0,"connection":4,"Typeofmeters":"Mechanical"}},{"type":"Feature","id":172,"geometry":{"type":"Point","coordinates":[35.147980300692502,32.069808716653554]},"properties":{"OBJECTID":172,"Y_Point":164101.364,"X_point":164194.42600000001,"Height":585.548,"Service_Nu":173,"Name":"حسين عبد القادر محمد عصفور","location":"Farkha","Water_mete":"يعمل","consumptio":0,"connection":4,"Typeofmeters":"Mechanical"}},{"type":"Feature","id":173,"geometry":{"type":"Point","coordinates":[35.152767287378431,32.068770439421399]},"properties":{"OBJECTID":173,"Y_Point":163985.973,"X_point":164646.35699999999,"Height":585.04100000000005,"Service_Nu":174,"Name":"عبد الرازق سلامة حمدان عبد الرازق","location":"Farkha","Water_mete":"يعمل","consumptio":0,"connection":4,"Typeofmeters":"Mechanical"}},{"type":"Feature","id":174,"geometry":{"type":"Point","coordinates":[35.15315467079472,32.067800605611772]},"properties":{"OBJECTID":174,"Y_Point":163878.41,"X_point":164682.87599999999,"Height":576.48599999999999,"Service_Nu":175,"Name":"مصباح عبد الله حسن حجاج","location":"Farkha","Water_mete":"يعمل","consumptio":0,"connection":4,"Typeofmeters":"Mechanical"}},{"type":"Feature","id":175,"geometry":{"type":"Point","coordinates":[35.149183530025525,32.06933415565026]},"properties":{"OBJECTID":175,"Y_Point":164048.674,"X_point":164308.00599999999,"Height":581.24699999999996,"Service_Nu":176,"Name":"منصور صابر عوض ذيب مهرة","location":"Farkha","Water_mete":"يعمل","consumptio":0,"connection":4,"Typeofmeters":"Mechanical"}},{"type":"Feature","id":176,"geometry":{"type":"Point","coordinates":[35.151241339521221,32.06830426458891]},"properties":{"OBJECTID":176,"Y_Point":163934.35999999999,"X_point":164502.24400000001,"Height":579.47799999999995,"Service_Nu":177,"Name":"حسن طه دمدوم","location":"Farkha","Water_mete":"يعمل","consumptio":0,"connection":4,"Typeofmeters":"Mechanical"}},{"type":"Feature","id":177,"geometry":{"type":"Point","coordinates":[35.14796550866258,32.069515548661869]},"properties":{"OBJECTID":177,"Y_Point":164068.856,"X_point":164193.01000000001,"Height":589.303,"Service_Nu":178,"Name":"حسني اسماعيل عثمان دمدوم","location":"Farkha","Water_mete":"يعمل","consumptio":0,"connection":4,"Typeofmeters":"Mechanical"}},{"type":"Feature","id":178,"geometry":{"type":"Point","coordinates":[35.152523329553333,32.067318004103164]},"properties":{"OBJECTID":178,"Y_Point":163824.92800000001,"X_point":164623.23300000001,"Height":572.01800000000003,"Service_Nu":179,"Name":"ياسر حسني اسماعيل دمدوم","location":"Farkha","Water_mete":"يعمل","consumptio":0,"connection":4,"Typeofmeters":"Mechanical"}},{"type":"Feature","id":179,"geometry":{"type":"Point","coordinates":[35.158972235349175,32.071246072855537]},"properties":{"OBJECTID":179,"Y_Point":164260.18599999999,"X_point":165232.37899999999,"Height":592.02700000000004,"Service_Nu":180,"Name":"ربحي نمر سليمان زيدية","location":"Farkha","Water_mete":"يعمل","consumptio":0,"connection":4,"Typeofmeters":"Mechanical"}},{"type":"Feature","id":180,"geometry":{"type":"Point","coordinates":[35.160473499407416,32.07003291055257]},"properties":{"OBJECTID":180,"Y_Point":164125.592,"X_point":165374.06400000001,"Height":590.73400000000004,"Service_Nu":181,"Name":"داوود محمد علي داوود","location":"Farkha","Water_mete":"يعمل","consumptio":0,"connection":4,"Typeofmeters":"Mechanical"}},{"type":"Feature","id":181,"geometry":{"type":"Point","coordinates":[35.151646256308446,32.068763831595867]},"properties":{"OBJECTID":181,"Y_Point":163985.299,"X_point":164540.50599999999,"Height":586.83799999999997,"Service_Nu":182,"Name":"خالد عودة محمد عودة","location":"Farkha","Water_mete":"يعمل","consumptio":0,"connection":4,"Typeofmeters":"Mechanical"}},{"type":"Feature","id":182,"geometry":{"type":"Point","coordinates":[35.149919720086714,32.069749017991491]},"properties":{"OBJECTID":182,"Y_Point":164094.63699999999,"X_point":164377.54500000001,"Height":580.96400000000006,"Service_Nu":183,"Name":"عمر عبد القادر عودة دمدوم","location":"Farkha","Water_mete":"يعمل","consumptio":0,"connection":4,"Typeofmeters":"Mechanical"}},{"type":"Feature","id":183,"geometry":{"type":"Point","coordinates":[35.154694575667371,32.069390482799292]},"properties":{"OBJECTID":183,"Y_Point":164054.63,"X_point":164828.37299999999,"Height":586.73599999999999,"Service_Nu":184,"Name":"محمد احمد عبد الغني رزق الله","location":"Farkha","Water_mete":"يعمل","consumptio":0,"connection":4,"Typeofmeters":"Mechanical"}},{"type":"Feature","id":184,"geometry":{"type":"Point","coordinates":[35.161927420011395,32.070867614731547]},"properties":{"OBJECTID":184,"Y_Point":164218.08600000001,"X_point":165511.38800000001,"Height":590.67499999999995,"Service_Nu":185,"Name":"صلاح الدين عبد الله حسن حجاج","location":"Farkha","Water_mete":"يعمل","consumptio":0,"connection":4,"Typeofmeters":"Mechanical"}},{"type":"Feature","id":185,"geometry":{"type":"Point","coordinates":[35.149127440678946,32.06922695665088]},"properties":{"OBJECTID":185,"Y_Point":164036.79000000001,"X_point":164302.70300000001,"Height":581.48299999999995,"Service_Nu":186,"Name":"علي محمد احمد قنبز","location":"Farkha","Water_mete":"يعمل","consumptio":0,"connection":4,"Typeofmeters":"Mechanical"}},{"type":"Feature","id":186,"geometry":{"type":"Point","coordinates":[35.152861751426151,32.067972832146594]},"properties":{"OBJECTID":186,"Y_Point":163897.52299999999,"X_point":164655.228,"Height":582.86500000000001,"Service_Nu":187,"Name":"عبد الله محمد احمد قمبز","location":"Farkha","Water_mete":"يعمل","consumptio":0,"connection":4,"Typeofmeters":"Mechanical"}},{"type":"Feature","id":187,"geometry":{"type":"Point","coordinates":[35.152716041292948,32.067635757336717]},"properties":{"OBJECTID":187,"Y_Point":163860.15299999999,"X_point":164641.44899999999,"Height":578.79700000000003,"Service_Nu":188,"Name":"احمد محمد احمد رزق الله","location":"Farkha","Water_mete":"يعمل","consumptio":0,"connection":4,"Typeofmeters":"Mechanical"}},{"type":"Feature","id":188,"geometry":{"type":"Point","coordinates":[35.151293097855927,32.06836545923592]},"properties":{"OBJECTID":188,"Y_Point":163941.14300000001,"X_point":164507.13500000001,"Height":579.56799999999998,"Service_Nu":189,"Name":"زهير عبد اللطيف قاسم دمدوم","location":"Farkha","Water_mete":"يعمل","consumptio":0,"connection":4,"Typeofmeters":"Mechanical"}},{"type":"Feature","id":189,"geometry":{"type":"Point","coordinates":[35.159112635647531,32.068809990079025]},"properties":{"OBJECTID":189,"Y_Point":163990.04699999999,"X_point":165245.503,"Height":587.73299999999995,"Service_Nu":190,"Name":"عبد الله احمد عبد الله الاشقر","location":"Farkha","Water_mete":"يعمل","consumptio":0,"connection":4,"Typeofmeters":"Mechanical"}},{"type":"Feature","id":190,"geometry":{"type":"Point","coordinates":[35.153275915026022,32.06731555992031]},"properties":{"OBJECTID":190,"Y_Point":163824.61799999999,"X_point":164694.29500000001,"Height":569.26199999999994,"Service_Nu":191,"Name":"خلدون زاهي يوسف الخطيب","location":"Farkha","Water_mete":"يعمل","consumptio":0,"connection":4,"Typeofmeters":"Mechanical"}},{"type":"Feature","id":191,"geometry":{"type":"Point","coordinates":[35.156480433810607,32.072941498218661]},"properties":{"OBJECTID":191,"Y_Point":164448.307,"X_point":164997.20000000001,"Height":584.59699999999998,"Service_Nu":192,"Name":"فادي محرم حسن حجاج","location":"Farkha","Water_mete":"يعمل","consumptio":0,"connection":4,"Typeofmeters":"Mechanical"}},{"type":"Feature","id":192,"geometry":{"type":"Point","coordinates":[35.158801378000241,32.071891697210233]},"properties":{"OBJECTID":192,"Y_Point":164331.78599999999,"X_point":165216.28200000001,"Height":590.71400000000006,"Service_Nu":193,"Name":"وصفي محمد رزق الله رزق الله","location":"Farkha","Water_mete":"يعمل","consumptio":0,"connection":4,"Typeofmeters":"Mechanical"}},{"type":"Feature","id":193,"geometry":{"type":"Point","coordinates":[35.162261377846036,32.070859305512556]},"properties":{"OBJECTID":193,"Y_Point":164217.14999999999,"X_point":165542.92000000001,"Height":591.61800000000005,"Service_Nu":194,"Name":"حسن عبد الله حجاج","location":"Farkha","Water_mete":"يعمل","consumptio":0,"connection":4,"Typeofmeters":"Mechanical"}},{"type":"Feature","id":194,"geometry":{"type":"Point","coordinates":[35.153179986916925,32.066355853418742]},"properties":{"OBJECTID":194,"Y_Point":163718.20300000001,"X_point":164685.179,"Height":557.25800000000004,"Service_Nu":195,"Name":"حاتم محمد احمد العبهري","location":"Farkha","Water_mete":"يعمل","consumptio":0,"connection":4,"Typeofmeters":"Mechanical"}},{"type":"Feature","id":195,"geometry":{"type":"Point","coordinates":[35.161856811711566,32.070845573579483]},"properties":{"OBJECTID":195,"Y_Point":164215.64499999999,"X_point":165504.72,"Height":591.01800000000003,"Service_Nu":196,"Name":"يوسف عبد الله حسن حجاج","location":"Farkha","Water_mete":"يعمل","consumptio":0,"connection":4,"Typeofmeters":"Mechanical"}},{"type":"Feature","id":196,"geometry":{"type":"Point","coordinates":[35.155526158751194,32.069448130606879]},"properties":{"OBJECTID":196,"Y_Point":164060.981,"X_point":164906.89600000001,"Height":590.72000000000003,"Service_Nu":197,"Name":"توفيق حسن عيسى حجاج","location":"Farkha","Water_mete":"يعمل","consumptio":0,"connection":4,"Typeofmeters":"Mechanical"}},{"type":"Feature","id":197,"geometry":{"type":"Point","coordinates":[35.151807870456842,32.068343736995082]},"properties":{"OBJECTID":197,"Y_Point":163938.70699999999,"X_point":164555.73999999999,"Height":586.99300000000005,"Service_Nu":198,"Name":"فاروق داوود اسماعيل حسن","location":"Farkha","Water_mete":"يعمل","consumptio":0,"connection":4,"Typeofmeters":"Mechanical"}},{"type":"Feature","id":198,"geometry":{"type":"Point","coordinates":[35.153378215497497,32.066426548161353]},"properties":{"OBJECTID":198,"Y_Point":163726.03200000001,"X_point":164703.90100000001,"Height":556.86199999999997,"Service_Nu":199,"Name":"معزوز عبد الفتاح مصطفى حجاج","location":"Farkha","Water_mete":"يعمل","consumptio":0,"connection":4,"Typeofmeters":"Mechanical"}},{"type":"Feature","id":199,"geometry":{"type":"Point","coordinates":[]},"properties":{"OBJECTID":199,"Y_Point":0,"X_point":0,"Height":0,"Service_Nu":200,"Name":"محمد حسن مصطفى","location":"Farkha","Water_mete":"يعمل","consumptio":0,"connection":4,"Typeofmeters":"Mechanical"}},{"type":"Feature","id":200,"geometry":{"type":"Point","coordinates":[35.155693690908443,32.069522451311222]},"properties":{"OBJECTID":200,"Y_Point":164069.21400000001,"X_point":164922.71900000001,"Height":591.74099999999999,"Service_Nu":201,"Name":"ثائر عطالله حجاج","location":"Farkha","Water_mete":"يعمل","consumptio":0,"connection":4,"Typeofmeters":"Mechanical"}},{"type":"Feature","id":201,"geometry":{"type":"Point","coordinates":[35.158916295002278,32.071536865147614]},"properties":{"OBJECTID":201,"Y_Point":164292.43400000001,"X_point":165227.11300000001,"Height":591.49099999999999,"Service_Nu":202,"Name":"راشد مرعي راشد بني صخر","location":"Farkha","Water_mete":"يعمل","consumptio":0,"connection":4,"Typeofmeters":"Mechanical"}},{"type":"Feature","id":202,"geometry":{"type":"Point","coordinates":[35.158832342393609,32.071203881579727]},"properties":{"OBJECTID":202,"Y_Point":164255.514,"X_point":165219.16800000001,"Height":591.71699999999998,"Service_Nu":203,"Name":"ابراهيم محمد كيالي","location":"Farkha","Water_mete":"يعمل","consumptio":0,"connection":4,"Typeofmeters":"Mechanical"}},{"type":"Feature","id":203,"geometry":{"type":"Point","coordinates":[35.155274032341929,32.071011116659598]},"properties":{"OBJECTID":203,"Y_Point":164234.31,"X_point":164883.18100000001,"Height":574.471,"Service_Nu":204,"Name":"جلال احمد عبد الخالق شريف","location":"Farkha","Water_mete":"يعمل","consumptio":0,"connection":4,"Typeofmeters":"Mechanical"}},{"type":"Feature","id":204,"geometry":{"type":"Point","coordinates":[35.155625670460765,32.067567800734587]},"properties":{"OBJECTID":204,"Y_Point":163852.47,"X_point":164916.18299999999,"Height":576.86800000000005,"Service_Nu":205,"Name":"محمد عبد الفتاح مصطفى حجاج","location":"Farkha","Water_mete":"يعمل","consumptio":0,"connection":4,"Typeofmeters":"Mechanical"}},{"type":"Feature","id":205,"geometry":{"type":"Point","coordinates":[35.151458229445332,32.069180784047497]},"properties":{"OBJECTID":205,"Y_Point":164031.54399999999,"X_point":164522.77799999999,"Height":590.17399999999998,"Service_Nu":206,"Name":"سامر حسين عبد الله زيدية","location":"Farkha","Water_mete":"يعمل","consumptio":0,"connection":4,"Typeofmeters":"Mechanical"}},{"type":"Feature","id":206,"geometry":{"type":"Point","coordinates":[35.151964986442849,32.067285663082082]},"properties":{"OBJECTID":206,"Y_Point":163821.37100000001,"X_point":164570.51000000001,"Height":572.60000000000002,"Service_Nu":207,"Name":"نضال خليل حمد دمدوم","location":"Farkha","Water_mete":"يعمل","consumptio":0,"connection":4,"Typeofmeters":"Mechanical"}},{"type":"Feature","id":207,"geometry":{"type":"Point","coordinates":[35.148963723347968,32.069728480191998]},"properties":{"OBJECTID":207,"Y_Point":164092.41200000001,"X_point":164287.277,"Height":575.86900000000003,"Service_Nu":208,"Name":"بكر حماد محمود رزق الله","location":"Farkha","Water_mete":"يعمل","consumptio":0,"connection":4,"Typeofmeters":"Mechanical"}},{"type":"Feature","id":208,"geometry":{"type":"Point","coordinates":[35.155279221657565,32.068150359910405]},"properties":{"OBJECTID":208,"Y_Point":163917.08600000001,"X_point":164883.50399999999,"Height":583.45500000000004,"Service_Nu":209,"Name":"حامد عبد الجبار عثمان","location":"Farkha","Water_mete":"يعمل","consumptio":0,"connection":4,"Typeofmeters":"Mechanical"}},{"type":"Feature","id":209,"geometry":{"type":"Point","coordinates":[35.153831785847188,32.068241831883675]},"properties":{"OBJECTID":209,"Y_Point":163927.302,"X_point":164746.83799999999,"Height":579.74000000000001,"Service_Nu":210,"Name":"يوسف عبد المجيد يوسف حجاج","location":"Farkha","Water_mete":"يعمل","consumptio":0,"connection":4,"Typeofmeters":"Mechanical"}},{"type":"Feature","id":210,"geometry":{"type":"Point","coordinates":[35.158764156842473,32.069507926442483]},"properties":{"OBJECTID":210,"Y_Point":164067.45600000001,"X_point":165212.63699999999,"Height":592.28800000000001,"Service_Nu":211,"Name":"جميل حسين عبدالله زيدية","location":"Farkha","Water_mete":"يعمل","consumptio":0,"connection":4,"Typeofmeters":"Mechanical"}},{"type":"Feature","id":211,"geometry":{"type":"Point","coordinates":[35.148516322036137,32.069932444473672]},"properties":{"OBJECTID":211,"Y_Point":164115.054,"X_point":164245.046,"Height":572.75800000000004,"Service_Nu":212,"Name":"خليل عوض عباس عقل","location":"Farkha","Water_mete":"يعمل","consumptio":0,"connection":4,"Typeofmeters":"Mechanical"}},{"type":"Feature","id":212,"geometry":{"type":"Point","coordinates":[35.151261227178743,32.067026489591314]},"properties":{"OBJECTID":212,"Y_Point":163792.66899999999,"X_point":164504.04199999999,"Height":565.904,"Service_Nu":213,"Name":"محمود حمدان احمد دمدوم","location":"Farkha","Water_mete":"يعمل","consumptio":0,"connection":4,"Typeofmeters":"Mechanical"}},{"type":"Feature","id":213,"geometry":{"type":"Point","coordinates":[35.154684200279249,32.069757794500106]},"properties":{"OBJECTID":213,"Y_Point":164095.361,"X_point":164827.41500000001,"Height":583.78300000000002,"Service_Nu":214,"Name":"صلاح احمد عبد الغني محمد","location":"Farkha","Water_mete":"يعمل","consumptio":0,"connection":4,"Typeofmeters":"Mechanical"}},{"type":"Feature","id":214,"geometry":{"type":"Point","coordinates":[35.151321452584803,32.066854407894162]},"properties":{"OBJECTID":214,"Y_Point":163773.584,"X_point":164509.71799999999,"Height":565.01800000000003,"Service_Nu":215,"Name":"نعيم حمدان احمد دمدوم","location":"Farkha","Water_mete":"يعمل","consumptio":0,"connection":4,"Typeofmeters":"Mechanical"}},{"type":"Feature","id":215,"geometry":{"type":"Point","coordinates":[35.146944145399061,32.06957409640156]},"properties":{"OBJECTID":215,"Y_Point":164075.40599999999,"X_point":164096.57500000001,"Height":597.15099999999995,"Service_Nu":216,"Name":"اوقاف سلفيت المسجد القديم فرخة","location":"Farkha","Water_mete":"يعمل","consumptio":0,"connection":4,"Typeofmeters":"Mechanical"}},{"type":"Feature","id":216,"geometry":{"type":"Point","coordinates":[35.155592103769997,32.071004621514888]},"properties":{"OBJECTID":216,"Y_Point":164233.57399999999,"X_point":164913.21299999999,"Height":576.95799999999997,"Service_Nu":217,"Name":"امينة خميس عبد الخالق","location":"Farkha","Water_mete":"يعمل","consumptio":0,"connection":4,"Typeofmeters":"Mechanical"}},{"type":"Feature","id":217,"geometry":{"type":"Point","coordinates":[35.150456591701037,32.069587378172557]},"properties":{"OBJECTID":217,"Y_Point":164076.68400000001,"X_point":164428.22700000001,"Height":590.327,"Service_Nu":218,"Name":"اوقاف سلفيت مسجد ابو بكر فرخة","location":"Farkha","Water_mete":"يعمل","consumptio":0,"connection":4,"Typeofmeters":"Mechanical"}},{"type":"Feature","id":218,"geometry":{"type":"Point","coordinates":[35.147328506302692,32.069979720240653]},"properties":{"OBJECTID":218,"Y_Point":164120.36300000001,"X_point":164132.894,"Height":585.61699999999996,"Service_Nu":219,"Name":"محمد رزق الله سليمان رزق الله","location":"Farkha","Water_mete":"يعمل","consumptio":0,"connection":4,"Typeofmeters":"Mechanical"}},{"type":"Feature","id":219,"geometry":{"type":"Point","coordinates":[35.153740846641639,32.068421313486844]},"properties":{"OBJECTID":219,"Y_Point":163947.209,"X_point":164738.26199999999,"Height":580.053,"Service_Nu":220,"Name":"نضال عبد المجيد يوسف حجاج","location":"Farkha","Water_mete":"يعمل","consumptio":0,"connection":4,"Typeofmeters":"Mechanical"}},{"type":"Feature","id":220,"geometry":{"type":"Point","coordinates":[35.150533281029205,32.070186064197472]},"properties":{"OBJECTID":220,"Y_Point":164143.06700000001,"X_point":164435.50599999999,"Height":573.31799999999998,"Service_Nu":221,"Name":"وزارة الصحة عيادة فرخة","location":"Farkha","Water_mete":"يعمل","consumptio":0,"connection":4,"Typeofmeters":"Mechanical"}},{"type":"Feature","id":221,"geometry":{"type":"Point","coordinates":[35.146460827602219,32.069880913484127]},"properties":{"OBJECTID":221,"Y_Point":164109.45600000001,"X_point":164050.95999999999,"Height":589.53899999999999,"Service_Nu":222,"Name":"زياد محمد علي شباك","location":"Farkha","Water_mete":"يعمل","consumptio":0,"connection":4,"Typeofmeters":"Mechanical"}},{"type":"Feature","id":222,"geometry":{"type":"Point","coordinates":[35.157284110083346,32.0685780515537]},"properties":{"OBJECTID":222,"Y_Point":163964.41399999999,"X_point":165072.83600000001,"Height":591.06700000000001,"Service_Nu":223,"Name":"محمد صالح عبد الغني ( اشتراك 2 )","location":"Farkha","Water_mete":"يعمل","consumptio":0,"connection":4,"Typeofmeters":"Mechanical"}},{"type":"Feature","id":223,"geometry":{"type":"Point","coordinates":[35.157537861491114,32.068240811707454]},"properties":{"OBJECTID":223,"Y_Point":163927.00599999999,"X_point":165096.777,"Height":588.66600000000005,"Service_Nu":224,"Name":"طه جبر مصطفى","location":"Farkha","Water_mete":"يعمل","consumptio":0,"connection":4,"Typeofmeters":"Mechanical"}},{"type":"Feature","id":224,"geometry":{"type":"Point","coordinates":[35.15608866093423,32.071021227772512]},"properties":{"OBJECTID":224,"Y_Point":164235.391,"X_point":164960.09899999999,"Height":578.654,"Service_Nu":225,"Name":"وصفية عبد العزيز مصطفى رزق الله","location":"Farkha","Water_mete":"يعمل","consumptio":0,"connection":4,"Typeofmeters":"Mechanical"}},{"type":"Feature","id":225,"geometry":{"type":"Point","coordinates":[35.151667160283061,32.073470388849785]},"properties":{"OBJECTID":225,"Y_Point":164507.19899999999,"X_point":164542.772,"Height":570.495,"Service_Nu":226,"Name":"محمد حسين مصطفى رزق الله","location":"Farkha","Water_mete":"يعمل","consumptio":0,"connection":4,"Typeofmeters":"Mechanical"}},{"type":"Feature","id":226,"geometry":{"type":"Point","coordinates":[35.156742589354245,32.067555668001305]},"properties":{"OBJECTID":226,"Y_Point":163851.07000000001,"X_point":165021.64600000001,"Height":583.01499999999999,"Service_Nu":227,"Name":"منير حمودة خالد الشريف","location":"Farkha","Water_mete":"يعمل","consumptio":0,"connection":4,"Typeofmeters":"Mechanical"}},{"type":"Feature","id":227,"geometry":{"type":"Point","coordinates":[35.151729761777766,32.067267388819801]},"properties":{"OBJECTID":227,"Y_Point":163819.35699999999,"X_point":164548.29800000001,"Height":570.73500000000001,"Service_Nu":228,"Name":"خليل حمد دمدوم","location":"Farkha","Water_mete":"يعمل","consumptio":0,"connection":4,"Typeofmeters":"Mechanical"}},{"type":"Feature","id":228,"geometry":{"type":"Point","coordinates":[35.154064784517892,32.068771058069871]},"properties":{"OBJECTID":228,"Y_Point":163985.97500000001,"X_point":164768.87,"Height":583.42100000000005,"Service_Nu":229,"Name":"احمد محمد محمود عبد النبي","location":"Farkha","Water_mete":"يعمل","consumptio":0,"connection":4,"Typeofmeters":"Mechanical"}},{"type":"Feature","id":229,"geometry":{"type":"Point","coordinates":[35.155388010713729,32.069914882019127]},"properties":{"OBJECTID":229,"Y_Point":164112.745,"X_point":164893.87899999999,"Height":585.59199999999998,"Service_Nu":230,"Name":"نعيم حسن مصطفى رزق الله","location":"Farkha","Water_mete":"يعمل","consumptio":0,"connection":4,"Typeofmeters":"Mechanical"}},{"type":"Feature","id":230,"geometry":{"type":"Point","coordinates":[35.150300236142435,32.068632104420452]},"properties":{"OBJECTID":230,"Y_Point":163970.764,"X_point":164413.40299999999,"Height":576.255,"Service_Nu":231,"Name":"عطا عبدالقادر محمد رزق الله","location":"Farkha","Water_mete":"يعمل","consumptio":0,"connection":4,"Typeofmeters":"Mechanical"}},{"type":"Feature","id":231,"geometry":{"type":"Point","coordinates":[35.156273538631922,32.067669757814137]},"properties":{"OBJECTID":231,"Y_Point":163863.74400000001,"X_point":164977.36300000001,"Height":582.048,"Service_Nu":232,"Name":"انور حمودة خالد الشريف","location":"Farkha","Water_mete":"يعمل","consumptio":0,"connection":4,"Typeofmeters":"Mechanical"}},{"type":"Feature","id":232,"geometry":{"type":"Point","coordinates":[35.147557466535979,32.069335412362854]},"properties":{"OBJECTID":232,"Y_Point":164048.90400000001,"X_point":164154.47,"Height":598.53200000000004,"Service_Nu":233,"Name":"عبد المجيد سليم عبد المجيد رزق الله","location":"Farkha","Water_mete":"يعمل","consumptio":0,"connection":4,"Typeofmeters":"Mechanical"}},{"type":"Feature","id":233,"geometry":{"type":"Point","coordinates":[35.148042063951372,32.069796907108795]},"properties":{"OBJECTID":233,"Y_Point":164100.05100000001,"X_point":164200.25700000001,"Height":584.97400000000005,"Service_Nu":234,"Name":"يونس حسين رزق الله","location":"Farkha","Water_mete":"يعمل","consumptio":0,"connection":4,"Typeofmeters":"Mechanical"}},{"type":"Feature","id":234,"geometry":{"type":"Point","coordinates":[35.155639096161664,32.069883358585351]},"properties":{"OBJECTID":234,"Y_Point":164109.23699999999,"X_point":164917.58499999999,"Height":586.745,"Service_Nu":235,"Name":"فهمي يوسف احمد بدح","location":"Farkha","Water_mete":"يعمل","consumptio":0,"connection":4,"Typeofmeters":"Mechanical"}},{"type":"Feature","id":235,"geometry":{"type":"Point","coordinates":[35.14871187611363,32.069771551227205]},"properties":{"OBJECTID":235,"Y_Point":164097.20199999999,"X_point":164263.5,"Height":575.31100000000004,"Service_Nu":236,"Name":"فتحي حماد محمود رزق الله","location":"Farkha","Water_mete":"يعمل","consumptio":0,"connection":4,"Typeofmeters":"Mechanical"}},{"type":"Feature","id":236,"geometry":{"type":"Point","coordinates":[35.152728406163725,32.066429933922663]},"properties":{"OBJECTID":236,"Y_Point":163726.44099999999,"X_point":164642.54300000001,"Height":558.92700000000002,"Service_Nu":237,"Name":"فادي داوود عبدالحافظ رزق الله","location":"Farkha","Water_mete":"يعمل","consumptio":0,"connection":4,"Typeofmeters":"Mechanical"}},{"type":"Feature","id":237,"geometry":{"type":"Point","coordinates":[35.152648007248331,32.068700547333293]},"properties":{"OBJECTID":237,"Y_Point":163978.22899999999,"X_point":164635.09,"Height":585.56700000000001,"Service_Nu":238,"Name":"التربية و التعليم فرخة الثانوية","location":"Farkha","Water_mete":"يعمل","consumptio":0,"connection":4,"Typeofmeters":"Mechanical"}},{"type":"Feature","id":238,"geometry":{"type":"Point","coordinates":[35.147752112586332,32.068762672306477]},"properties":{"OBJECTID":238,"Y_Point":163985.383,"X_point":164172.81099999999,"Height":595.5,"Service_Nu":239,"Name":"التربية و التعليم فرخة الاساسية","location":"Farkha","Water_mete":"يعمل","consumptio":0,"connection":4,"Typeofmeters":"Mechanical"}},{"type":"Feature","id":239,"geometry":{"type":"Point","coordinates":[35.155287614347273,32.068793562027665]},"properties":{"OBJECTID":239,"Y_Point":163988.40900000001,"X_point":164884.334,"Height":589.755,"Service_Nu":240,"Name":"نعيم محمد عبدالله زيدية","location":"Farkha","Water_mete":"يعمل","consumptio":0,"connection":4,"Typeofmeters":"Mechanical"}},{"type":"Feature","id":240,"geometry":{"type":"Point","coordinates":[35.155166812364442,32.068800848572437]},"properties":{"OBJECTID":240,"Y_Point":163989.223,"X_point":164872.92800000001,"Height":588.69399999999996,"Service_Nu":241,"Name":"امين محمد عبدالله زيدية","location":"Farkha","Water_mete":"يعمل","consumptio":0,"connection":4,"Typeofmeters":"Mechanical"}},{"type":"Feature","id":241,"geometry":{"type":"Point","coordinates":[35.150711811543573,32.068425176545674]},"properties":{"OBJECTID":241,"Y_Point":163947.796,"X_point":164452.25200000001,"Height":577.13599999999997,"Service_Nu":242,"Name":"محمد عادل محمد حجاج","location":"Farkha","Water_mete":"يعمل","consumptio":0,"connection":4,"Typeofmeters":"Mechanical"}},{"type":"Feature","id":242,"geometry":{"type":"Point","coordinates":[35.148175700637722,32.069109001461904]},"properties":{"OBJECTID":242,"Y_Point":164023.76300000001,"X_point":164212.82999999999,"Height":590.024,"Service_Nu":243,"Name":"حسام الدين عبد الرحيم ابراهيم","location":"Farkha","Water_mete":"يعمل","consumptio":0,"connection":4,"Typeofmeters":"Mechanical"}},{"type":"Feature","id":243,"geometry":{"type":"Point","coordinates":[35.158200325182385,32.07196396665325]},"properties":{"OBJECTID":243,"Y_Point":164339.82800000001,"X_point":165159.535,"Height":589.85699999999997,"Service_Nu":244,"Name":"سميح عبد المعطي حسن حجاج","location":"Farkha","Water_mete":"يعمل","consumptio":0,"connection":4,"Typeofmeters":"Mechanical"}},{"type":"Feature","id":244,"geometry":{"type":"Point","coordinates":[35.149181257555284,32.06884788931395]},"properties":{"OBJECTID":244,"Y_Point":163994.753,"X_point":164307.76000000001,"Height":576.31600000000003,"Service_Nu":245,"Name":"روضة الزيتونة","location":"Farkha","Water_mete":"يعمل","consumptio":0,"connection":4,"Typeofmeters":"Mechanical"}},{"type":"Feature","id":245,"geometry":{"type":"Point","coordinates":[35.156446533642033,32.072797978322136]},"properties":{"OBJECTID":245,"Y_Point":164432.394,"X_point":164993.99100000001,"Height":582.16300000000001,"Service_Nu":246,"Name":"احمد حسين مصطفى رزق الله","location":"Farkha","Water_mete":"يعمل","consumptio":0,"connection":4,"Typeofmeters":"Mechanical"}},{"type":"Feature","id":246,"geometry":{"type":"Point","coordinates":[35.15354583076077,32.066708189065146]},"properties":{"OBJECTID":246,"Y_Point":163757.25399999999,"X_point":164719.745,"Height":559.077,"Service_Nu":247,"Name":"احمد عبد الفتاح مصطفى حجاج","location":"Farkha","Water_mete":"يعمل","consumptio":0,"connection":4,"Typeofmeters":"Mechanical"}},{"type":"Feature","id":247,"geometry":{"type":"Point","coordinates":[35.15810106469597,32.070685833924379]},"properties":{"OBJECTID":247,"Y_Point":164198.103,"X_point":165150.092,"Height":590.46299999999997,"Service_Nu":248,"Name":"عبدالله حسين عبدالقادر عصفور","location":"Farkha","Water_mete":"يعمل","consumptio":0,"connection":4,"Typeofmeters":"Mechanical"}},{"type":"Feature","id":248,"geometry":{"type":"Point","coordinates":[35.154150335934538,32.068300992379413]},"properties":{"OBJECTID":248,"Y_Point":163933.84599999999,"X_point":164776.92000000001,"Height":579.48699999999997,"Service_Nu":249,"Name":"محمد عبد المجيد يوسف حجاج","location":"Farkha","Water_mete":"يعمل","consumptio":0,"connection":4,"Typeofmeters":"Mechanical"}},{"type":"Feature","id":249,"geometry":{"type":"Point","coordinates":[35.154730731404278,32.069205637041307]},"properties":{"OBJECTID":249,"Y_Point":164034.13099999999,"X_point":164831.77600000001,"Height":587.678,"Service_Nu":252,"Name":"لبيب عطالله محمود ( اشتراك 2 )","location":"Farkha","Water_mete":"يعمل","consumptio":0,"connection":4,"Typeofmeters":"Mechanical"}},{"type":"Feature","id":250,"geometry":{"type":"Point","coordinates":[35.158992760325063,32.070660085157876]},"properties":{"OBJECTID":250,"Y_Point":164195.20600000001,"X_point":165234.285,"Height":592.97500000000002,"Service_Nu":253,"Name":"محمد تيسير محمد رزق الله","location":"Farkha","Water_mete":"يعمل","consumptio":0,"connection":4,"Typeofmeters":"Mechanical"}},{"type":"Feature","id":251,"geometry":{"type":"Point","coordinates":[35.155820830098342,32.06897400865352]},"properties":{"OBJECTID":251,"Y_Point":164008.39199999999,"X_point":164934.69200000001,"Height":592.58500000000004,"Service_Nu":254,"Name":"شادي داوود عبد الحافظ رزق الله","location":"Farkha","Water_mete":"يعمل","consumptio":0,"connection":4,"Typeofmeters":"Mechanical"}},{"type":"Feature","id":252,"geometry":{"type":"Point","coordinates":[35.154032821404329,32.070951106871107]},"properties":{"OBJECTID":252,"Y_Point":164227.71799999999,"X_point":164765.98199999999,"Height":568.21600000000001,"Service_Nu":255,"Name":"ساهر محمود يوسف رزق الله","location":"Farkha","Water_mete":"يعمل","consumptio":0,"connection":4,"Typeofmeters":"Mechanical"}},{"type":"Feature","id":253,"geometry":{"type":"Point","coordinates":[35.152232321917715,32.067628784288281]},"properties":{"OBJECTID":253,"Y_Point":163859.405,"X_point":164595.774,"Height":579.06200000000001,"Service_Nu":256,"Name":"ياسر حسني اسماعيل ( اشتراك 2 )","location":"Farkha","Water_mete":"يعمل","consumptio":0,"connection":4,"Typeofmeters":"Mechanical"}},{"type":"Feature","id":254,"geometry":{"type":"Point","coordinates":[35.154695094535818,32.069390609287659]},"properties":{"OBJECTID":254,"Y_Point":164054.644,"X_point":164828.42199999999,"Height":586.78300000000002,"Service_Nu":257,"Name":"ايهاب محمد احمد رزق الله","location":"Farkha","Water_mete":"يعمل","consumptio":0,"connection":4,"Typeofmeters":"Mechanical"}},{"type":"Feature","id":255,"geometry":{"type":"Point","coordinates":[35.15253728317672,32.067831925513495]},"properties":{"OBJECTID":255,"Y_Point":163881.91500000001,"X_point":164624.58199999999,"Height":585.50999999999999,"Service_Nu":258,"Name":"بسام عبد العزيز مصطفى رزق الله","location":"Farkha","Water_mete":"يعمل","consumptio":0,"connection":4,"Typeofmeters":"Mechanical"}},{"type":"Feature","id":256,"geometry":{"type":"Point","coordinates":[35.15972814362155,32.07015214881892]},"properties":{"OBJECTID":256,"Y_Point":164138.848,"X_point":165303.693,"Height":591.08100000000002,"Service_Nu":259,"Name":"خليل سليمان يوسف شباك","location":"Farkha","Water_mete":"يعمل","consumptio":0,"connection":4,"Typeofmeters":"Mechanical"}},{"type":"Feature","id":257,"geometry":{"type":"Point","coordinates":[35.158324821709598,32.070119871715846]},"properties":{"OBJECTID":257,"Y_Point":164135.334,"X_point":165171.18799999999,"Height":592.29600000000005,"Service_Nu":260,"Name":"عبدالقادر خميس الخطيب ( اشتراك 2 )","location":"Farkha","Water_mete":"يعمل","consumptio":0,"connection":4,"Typeofmeters":"Mechanical"}},{"type":"Feature","id":258,"geometry":{"type":"Point","coordinates":[35.155538413512986,32.067036451018197]},"properties":{"OBJECTID":258,"Y_Point":163793.554,"X_point":164907.913,"Height":571.54399999999998,"Service_Nu":261,"Name":"اياد عبد المجيد شباك ( اشتراك 2 )","location":"Farkha","Water_mete":"يعمل","consumptio":0,"connection":4,"Typeofmeters":"Mechanical"}},{"type":"Feature","id":259,"geometry":{"type":"Point","coordinates":[35.147753020103728,32.068056311634734]},"properties":{"OBJECTID":259,"Y_Point":163907.05600000001,"X_point":164172.85000000001,"Height":572.68600000000004,"Service_Nu":262,"Name":"ساجدة سليمان يوسف بركات","location":"Farkha","Water_mete":"يعمل","consumptio":0,"connection":4,"Typeofmeters":"Mechanical"}},{"type":"Feature","id":260,"geometry":{"type":"Point","coordinates":[35.151941268189582,32.068006983128676]},"properties":{"OBJECTID":260,"Y_Point":163901.35800000001,"X_point":164568.315,"Height":581.73000000000002,"Service_Nu":263,"Name":"نوح خميس عبد الخالق خطيب","location":"Farkha","Water_mete":"يعمل","consumptio":0,"connection":4,"Typeofmeters":"Mechanical"}},{"type":"Feature","id":261,"geometry":{"type":"Point","coordinates":[35.158845891145745,32.069553664555663]},"properties":{"OBJECTID":261,"Y_Point":164072.524,"X_point":165220.35699999999,"Height":592.15499999999997,"Service_Nu":264,"Name":"كامل حسين عبد الله زيدية","location":"Farkha","Water_mete":"يعمل","consumptio":0,"connection":4,"Typeofmeters":"Mechanical"}},{"type":"Feature","id":262,"geometry":{"type":"Point","coordinates":[35.150733528566327,32.068844231353701]},"properties":{"OBJECTID":262,"Y_Point":163994.26300000001,"X_point":164454.329,"Height":582.73599999999999,"Service_Nu":265,"Name":"زاهر عبد اللطيف دمدوم","location":"Farkha","Water_mete":"يعمل","consumptio":0,"connection":4,"Typeofmeters":"Mechanical"}},{"type":"Feature","id":263,"geometry":{"type":"Point","coordinates":[35.15645308799926,32.072800569394033]},"properties":{"OBJECTID":263,"Y_Point":164432.68100000001,"X_point":164994.60999999999,"Height":583.06399999999996,"Service_Nu":266,"Name":"يحيى حسين مصطفى رزق الله","location":"Farkha","Water_mete":"يعمل","consumptio":0,"connection":4,"Typeofmeters":"Mechanical"}},{"type":"Feature","id":264,"geometry":{"type":"Point","coordinates":[35.156260591042233,32.07275267980183]},"properties":{"OBJECTID":264,"Y_Point":164427.38,"X_point":164976.432,"Height":580.25900000000001,"Service_Nu":267,"Name":"مرعي عبد الله راشد بني صخر","location":"Farkha","Water_mete":"يعمل","consumptio":0,"connection":4,"Typeofmeters":"Mechanical"}},{"type":"Feature","id":265,"geometry":{"type":"Point","coordinates":[35.152716803725795,32.067635892965413]},"properties":{"OBJECTID":265,"Y_Point":163860.16800000001,"X_point":164641.52100000001,"Height":578.79300000000001,"Service_Nu":268,"Name":"بهاء احمد محمد رزق الله","location":"Farkha","Water_mete":"يعمل","consumptio":0,"connection":4,"Typeofmeters":"Mechanical"}},{"type":"Feature","id":266,"geometry":{"type":"Point","coordinates":[35.160394449118002,32.070730031835154]},"properties":{"OBJECTID":266,"Y_Point":164202.89799999999,"X_point":165366.63699999999,"Height":591.23500000000001,"Service_Nu":269,"Name":"يوسف عبدالله حجاج ( مخازن )","location":"Farkha","Water_mete":"يعمل","consumptio":0,"connection":4,"Typeofmeters":"Mechanical"}},{"type":"Feature","id":267,"geometry":{"type":"Point","coordinates":[35.159987776789613,32.070939491118338]},"properties":{"OBJECTID":267,"Y_Point":164226.14300000001,"X_point":165328.25,"Height":591.76300000000003,"Service_Nu":270,"Name":"حامد سليمان رزق الله","location":"Farkha","Water_mete":"يعمل","consumptio":0,"connection":4,"Typeofmeters":"Mechanical"}},{"type":"Feature","id":268,"geometry":{"type":"Point","coordinates":[35.151540678718618,32.068344331089044]},"properties":{"OBJECTID":268,"Y_Point":163938.78700000001,"X_point":164530.511,"Height":580.99800000000005,"Service_Nu":271,"Name":"يوسف داوود اسماعيل حسن","location":"Farkha","Water_mete":"يعمل","consumptio":0,"connection":4,"Typeofmeters":"Mechanical"}},{"type":"Feature","id":269,"geometry":{"type":"Point","coordinates":[35.146451069486666,32.069545425969409]},"properties":{"OBJECTID":269,"Y_Point":164072.255,"X_point":164050.016,"Height":595.28999999999996,"Service_Nu":272,"Name":"زياد يوسف علي الخطيب","location":"Farkha","Water_mete":"يعمل","consumptio":0,"connection":4,"Typeofmeters":"Mechanical"}},{"type":"Feature","id":270,"geometry":{"type":"Point","coordinates":[35.158343903452227,32.07052334975063]},"properties":{"OBJECTID":270,"Y_Point":164180.07399999999,"X_point":165173.01199999999,"Height":591.77999999999997,"Service_Nu":273,"Name":"زهير يوسف الخطيب ( اشتراك 2)","location":"Farkha","Water_mete":"يعمل","consumptio":0,"connection":4,"Typeofmeters":"Mechanical"}},{"type":"Feature","id":271,"geometry":{"type":"Point","coordinates":[35.14887478673014,32.069367161612618]},"properties":{"OBJECTID":271,"Y_Point":164052.351,"X_point":164278.856,"Height":582.38699999999994,"Service_Nu":274,"Name":"مجلس قروي فرخة","location":"Farkha","Water_mete":"يعمل","consumptio":0,"connection":4,"Typeofmeters":"Mechanical"}},{"type":"Feature","id":272,"geometry":{"type":"Point","coordinates":[35.148983752461874,32.06958689692113]},"properties":{"OBJECTID":272,"Y_Point":164076.71100000001,"X_point":164289.15900000001,"Height":581.94200000000001,"Service_Nu":275,"Name":"عداد الساحة ( اشتراك 2 )","location":"Farkha","Water_mete":"يعمل","consumptio":0,"connection":4,"Typeofmeters":"Mechanical"}},{"type":"Feature","id":273,"geometry":{"type":"Point","coordinates":[35.158832643431026,32.069660983450156]},"properties":{"OBJECTID":273,"Y_Point":164084.42499999999,"X_point":165219.11199999999,"Height":592.04600000000005,"Service_Nu":276,"Name":"عبد الله حسن احمد دمدوم","location":"Farkha","Water_mete":"يعمل","consumptio":0,"connection":4,"Typeofmeters":"Mechanical"}},